Time (s),Altitude (m),Total Velocity (m/s),Total Acceleration (m/s^2),Latitude (deg),Longitude (deg),Angle of Attack (deg),Roll Rate (r/s),Pitch Rate (r/s),Yaw Rate (r/s),Mass (g),Air Temperature (Celsius),Air Pressure (mbar)
0.002,-0.000006751,0.00676011,3.379874261,47.96578631,-81.9,87.19343097,0,0,0,54934.36913,12.24018844,963.4531314
0.004,1.89E-05,0.018898364,9.449724529,47.96578631,-81.9,86.45962698,0,0,0,54931.27112,12.24018828,963.4531284
0.006,0.000101115,0.063458096,22.28077021,47.96578631,-81.9,85.18816474,0,0,0,54928.1731,12.24018774,963.4531188
0.008,0.000297984,0.13368209,35.11326272,47.96578631,-81.9,83.19447664,0,0,0,54925.07508,12.24018646,963.4530957
0.01,0.000660741,0.229573239,47.94720177,47.96578631,-81.9,80.49948073,0,0,0,54921.97707,12.24018411,963.4530531
0.012,0.001240651,0.351134436,60.78258662,47.96578631,-81.9,77.14435684,0,0,0,54918.87905,12.24018034,963.4529851
0.014,0.002088988,0.498368571,73.61941588,47.96578631,-81.9,73.19914768,0,0,0,54915.78104,12.24017482,963.4528856
0.016,0.003257031,0.671278532,86.45768747,47.96578631,-81.9,68.76847039,0,0,0,54912.68302,12.24016723,963.4527486
0.018,0.004796062,0.869867199,99.29739852,47.96578631,-81.9,63.99048128,0,0,0,54909.585,12.24015723,963.4525681
0.02,0.006754177,1.090937626,110.5414292,47.96578631,-81.9,59.09422337,0,0,0,54904.9321,12.2401445,963.4523385
0.022,0.009157109,1.315297033,112.1865748,47.96578631,-81.89999999,54.58874039,0,0,0,54898.72432,12.24012888,963.4520566
0.024,0.012008234,1.539745593,112.2311491,47.96578631,-81.89999999,50.53410625,0,0,0,54892.51654,12.24011035,963.4517223
0.026,0.015307731,1.764283304,112.2757222,47.96578631,-81.89999999,46.90071522,0,0,0,54886.30876,12.2400889,963.4513353
0.028,0.019055776,1.988910164,112.3202942,47.96578631,-81.89999999,43.65116194,0,0,0,54880.10097,12.24006454,963.4508957
0.03,0.023252548,2.21362617,112.3648652,47.96578631,-81.89999998,40.74554089,0,0,0,54873.89319,12.24003726,963.4504035
0.032,0.027898226,2.438431321,112.4094356,47.96578631,-81.89999998,38.14477828,0,0,0,54867.68541,12.24000706,963.4498586
0.034,0.032992986,2.663325616,112.4540054,47.96578631,-81.89999998,35.81247475,0,0,0,54861.47763,12.23997395,963.4492611
0.036,0.038537008,2.888309053,112.498575,47.96578631,-81.89999997,33.71575001,0,0,0,54855.26985,12.23993791,963.4486109
0.038,0.044530469,3.113381633,112.5431445,47.96578631,-81.89999997,31.82547392,0,0,0,54849.06206,12.23989895,963.4479079
0.04,0.050973547,3.338543356,112.5877142,47.96578631,-81.89999996,30.11615134,0,0,0,54842.85428,12.23985707,963.4471523
0.042,0.057866421,3.563794222,112.6322842,47.96578631,-81.89999996,28.56563274,0,0,0,54836.6465,12.23981227,963.4463439
0.044,0.065209268,3.789134232,112.6768546,47.96578631,-81.89999995,27.15475423,0,0,0,54830.43872,12.23976454,963.4454827
0.046,0.073002266,4.014563386,112.7214255,47.96578631,-81.89999995,25.86696579,0,0,0,54824.23093,12.23971389,963.4445687
0.048,0.081245594,4.240081687,112.765997,47.96578631,-81.89999994,24.68797878,0,0,0,54818.02315,12.2396603,963.4436019
0.05,0.0899394,4.465659951,112.7959328,47.96578631,-81.89999994,23.6055809,0,0,0,54811.83887,12.23960379,963.4425822
0.052,0.09908363,4.691122982,112.7383005,47.96578631,-81.89999993,22.60979842,0,0,0,54805.67808,12.23954436,963.4415098
0.054,0.108678023,4.916441546,112.666059,47.96578631,-81.89999992,21.69128476,0,0,0,54799.5173,12.23948199,963.4403845
0.056,0.118722291,5.141615591,112.5937921,47.96578631,-81.89999992,20.84180457,0,0,0,54793.35652,12.23941671,963.4392065
0.058,0.129216146,5.366645068,112.5215,47.96578631,-81.89999991,20.05419248,0,0,0,54787.19573,12.2393485,963.4379757
0.06,0.140159299,5.591529926,112.4491825,47.96578631,-81.8999999,19.32219537,0,0,0,54781.03495,12.23927736,963.4366923
0.062,0.15155146,5.816270114,112.3768397,47.96578631,-81.89999989,18.64033962,0,0,0,54774.87417,12.23920332,963.4353562
0.064,0.163392342,6.040865582,112.3044716,47.96578631,-81.89999989,18.00381911,0,0,0,54768.71338,12.23912635,963.4339674
0.066,0.175681654,6.265316278,112.2320781,47.96578631,-81.89999988,17.40840101,0,0,0,54762.5526,12.23904647,963.4325261
0.068,0.188419108,6.489622157,112.1596718,47.96578631,-81.89999987,16.85034611,0,0,0,54756.39182,12.23896368,963.4310322
0.07,0.201604414,6.71378321,112.0872551,47.96578631,-81.89999986,16.32634143,0,0,0,54750.23103,12.23887797,963.4294858
0.072,0.215237283,6.9377994,112.0148185,47.96578631,-81.89999985,15.83344339,0,0,0,54744.07025,12.23878936,963.4278869
0.074,0.229317426,7.161670687,111.9423616,47.96578631,-81.89999984,15.36902919,0,0,0,54737.90947,12.23869784,963.4262355
0.076,0.243844553,7.38539703,111.8698843,47.96578631,-81.89999983,14.93075551,0,0,0,54731.74868,12.23860341,963.4245317
0.078,0.258818374,7.608978389,111.7973862,47.96578631,-81.89999982,14.51652326,0,0,0,54725.5879,12.23850608,963.4227756
0.08,0.274238601,7.83241472,111.7248671,47.96578631,-81.89999981,14.12444734,0,0,0,54719.42712,12.23840585,963.420967
0.082,0.290104943,8.055705982,111.6523269,47.96578631,-81.8999998,13.75283065,0,0,0,54713.26633,12.23830272,963.4191062
0.084,0.306417111,8.278852133,111.5797654,47.96578631,-81.89999978,13.40014177,0,0,0,54707.10555,12.23819669,963.417193
0.086,0.323174815,8.50185313,111.5071823,47.96578631,-81.89999977,13.06499557,0,0,0,54700.94477,12.23808776,963.4152276
0.088,0.340377764,8.72470893,111.4345777,47.96578631,-81.89999976,12.74613653,0,0,0,54694.78398,12.23797594,963.41321
0.09,0.358025669,8.947419488,111.3619512,47.96578631,-81.89999975,12.4424242,0,0,0,54688.6232,12.23786123,963.4111402
0.092,0.376118239,9.169984763,111.2893028,47.96578631,-81.89999974,12.1528205,0,0,0,54682.46241,12.23774363,963.4090183
0.094,0.394655185,9.392404708,111.2166325,47.96578631,-81.89999972,11.87637868,0,0,0,54676.30163,12.23762314,963.4068442
0.096,0.413636216,9.614679282,111.14394,47.96578631,-81.89999971,11.61223367,0,0,0,54670.14085,12.23749976,963.404618
0.098,0.433061042,9.836808438,111.0712253,47.96578631,-81.8999997,11.35959356,0,0,0,54663.98006,12.2373735,963.4023398
0.1,0.452929372,10.05879214,110.9984969,47.96578631,-81.89999968,11.11773212,0,0,0,54657.81928,12.23724436,963.4000096
0.102,0.473240915,10.28063036,110.9257477,47.96578631,-81.89999967,10.88598223,0,0,0,54651.6585,12.23711233,963.3976274
0.104,0.493995406,10.5023473,110.8650892,47.96578631,-81.89999965,10.66370627,0,0,0,54645.50751,12.23697743,963.3951932
0.106,0.515192748,10.72408848,110.8772021,47.96578631,-81.89999964,10.450204,0,0,0,54639.3663,12.23683965,963.3927071
0.108,0.536833012,10.94587816,110.9014487,47.96578631,-81.89999962,10.24494957,0,0,0,54633.2251,12.23669899,963.3901691
0.11,0.558916296,11.16771633,110.925695,47.96578631,-81.89999961,10.04747909,0,0,0,54627.0839,12.23655544,963.3875791
0.112,0.581442697,11.389603,110.949941,47.96578631,-81.89999959,9.857362479,0,0,0,54620.9427,12.23640902,963.3849371
0.114,0.604412311,11.61153815,110.9741865,47.96578631,-81.89999957,9.674200415,0,0,0,54614.8015,12.23625972,963.3822432
0.116,0.627825236,11.8335218,110.9984315,47.96578631,-81.89999956,9.497621716,0,0,0,54608.6603,12.23610754,963.3794972
0.118,0.651681569,12.05555394,111.022676,47.96578631,-81.89999954,9.327280904,0,0,0,54602.5191,12.23595247,963.3766993
0.12,0.675981405,12.27763457,111.04692,47.96578631,-81.89999952,9.162856044,0,0,0,54596.3779,12.23579452,963.3738493
0.122,0.700724842,12.49976369,111.0711634,47.96578631,-81.89999951,9.004046788,0,0,0,54590.2367,12.23563369,963.3709473
0.124,0.725911977,12.72194129,111.0954061,47.96578631,-81.89999949,8.850572613,0,0,0,54584.0955,12.23546997,963.3679933
0.126,0.751542907,12.94416739,111.1196482,47.96578631,-81.89999947,8.702171226,0,0,0,54577.9543,12.23530337,963.3649872
0.128,0.777617728,13.16644196,111.1438897,47.96578631,-81.89999945,8.558597115,0,0,0,54571.8131,12.23513388,963.3619291
0.13,0.804136538,13.38876502,111.1681322,47.96578631,-81.89999943,8.419620243,0,0,0,54565.6719,12.23496151,963.3588189
0.132,0.831099433,13.61113657,111.1923768,47.96578631,-81.89999942,8.285024848,0,0,0,54559.5307,12.23478625,963.3556566
0.134,0.85850651,13.83355661,111.2166209,47.96578631,-81.8999994,8.154608375,0,0,0,54553.3895,12.23460811,963.3524422
0.136,0.886357865,14.05602514,111.2408644,47.96578631,-81.89999938,8.028180476,0,0,0,54547.24829,12.23442707,963.3491757
0.138,0.914653597,14.27854216,111.2651075,47.96578631,-81.89999936,7.905562118,0,0,0,54541.10709,12.23424315,963.3458571
0.14,0.9433938,14.50110766,111.2893499,47.96578631,-81.89999934,7.786584755,0,0,0,54534.96589,12.23405634,963.3424863
0.142,0.972578574,14.72372165,111.3135918,47.96578631,-81.89999932,7.671089578,0,0,0,54528.82469,12.23386664,963.3390634
0.144,1.002208013,14.94638412,111.3378332,47.96578631,-81.89999929,7.558926826,0,0,0,54522.68349,12.23367405,963.3355884
0.146,1.032282216,15.16909508,111.3620739,47.96578631,-81.89999927,7.449955154,0,0,0,54516.54229,12.23347857,963.3320612
0.148,1.062801278,15.39185452,111.386314,47.96578631,-81.89999925,7.344041056,0,0,0,54510.40109,12.23328019,963.3284818
0.15,1.093765298,15.61466244,111.4105535,47.96578631,-81.89999923,7.241058326,0,0,0,54504.25989,12.23307893,963.3248503
0.152,1.12517437,15.83751883,111.4347924,47.96578631,-81.89999921,7.140887577,0,0,0,54498.11869,12.23287477,963.3211665
0.154,1.157028593,16.06042371,111.4590306,47.96578631,-81.89999919,7.043415782,0,0,0,54491.97749,12.23266771,963.3174306
0.156,1.189328064,16.28337707,111.4832681,47.96578631,-81.89999916,6.94853586,0,0,0,54485.83629,12.23245777,963.3136424
0.158,1.222072878,16.5063789,111.507505,47.96578631,-81.89999914,6.856146295,0,0,0,54479.69509,12.23224493,963.3098019
0.16,1.255263133,16.7294292,111.5317414,47.96578631,-81.89999912,6.766150777,0,0,0,54473.55389,12.23202919,963.3059093
0.162,1.288898926,16.95252798,111.555979,47.96578631,-81.89999909,6.678457876,0,0,0,54467.41269,12.23181056,963.3019644
0.164,1.322980353,17.17567524,111.5802161,47.96578631,-81.89999907,6.592980738,0,0,0,54461.27148,12.23158903,963.2979672
0.166,1.357507512,17.39887097,111.6044526,47.96578631,-81.89999904,6.509636803,0,0,0,54455.13028,12.2313646,963.2939177
0.168,1.392480499,17.62211517,111.6286884,47.96578631,-81.89999902,6.428347547,0,0,0,54448.98908,12.23113728,963.289816
0.17,1.42789941,17.84540785,111.6529237,47.96578631,-81.89999899,6.349038234,0,0,0,54442.84788,12.23090705,963.2856619
0.172,1.463764344,18.068749,111.6771584,47.96578631,-81.89999897,6.271637697,0,0,0,54436.70668,12.23067393,963.2814556
0.174,1.500075396,18.29213861,111.7013924,47.96578631,-81.89999894,6.196078124,0,0,0,54430.56548,12.23043791,963.2771969
0.176,1.536832663,18.5155767,111.7256259,47.96578631,-81.89999892,6.122294865,0,0,0,54424.42428,12.23019899,963.2728859
0.178,1.574036242,18.73906325,111.7498587,47.96578631,-81.89999889,6.050226252,0,0,0,54418.28308,12.22995716,963.2685225
0.18,1.611686231,18.96259827,111.7740909,47.96578631,-81.89999887,5.979813426,0,0,0,54412.14188,12.22971244,963.2641068
0.182,1.649782725,19.18618176,111.7983225,47.96578631,-81.89999884,5.911000184,0,0,0,54406.00068,12.22946481,963.2596388
0.184,1.688325821,19.40981371,111.8225535,47.96578631,-81.89999881,5.843732827,0,0,0,54399.85948,12.22921428,963.2551183
0.186,1.727315617,19.63349412,111.8467838,47.96578631,-81.89999878,5.777960027,0,0,0,54393.71828,12.22896085,963.2505454
0.188,1.766752209,19.85722299,111.8710135,47.96578631,-81.89999876,5.713632693,0,0,0,54387.57708,12.22870451,963.2459202
0.19,1.806635694,20.08100033,111.8952426,47.96578631,-81.89999873,5.650703855,0,0,0,54381.43588,12.22844527,963.2412425
0.192,1.846966169,20.30482612,111.9194716,47.96578631,-81.8999987,5.58912855,0,0,0,54375.29468,12.22818312,963.2365124
0.194,1.88774373,20.52870037,111.9437002,47.96578631,-81.89999867,5.528863714,0,0,0,54369.15347,12.22791807,963.2317299
0.196,1.928968475,20.75262308,111.9679281,47.96578631,-81.89999864,5.469868088,0,0,0,54363.01227,12.2276501,963.2268949
0.198,1.970640499,20.97659424,111.9921554,47.96578631,-81.89999861,5.412102118,0,0,0,54356.87107,12.22737924,963.2220075
0.2,2.012759901,21.20061387,112.0163821,47.96578631,-81.89999858,5.355527875,0,0,0,54350.72987,12.22710546,963.2170676
0.202,2.055326775,21.42468194,112.0406082,47.96578631,-81.89999855,5.300108968,0,0,0,54344.58867,12.22682878,963.2120752
0.204,2.098341221,21.64879847,112.0648338,47.96578631,-81.89999852,5.245810469,0,0,0,54338.44747,12.22654918,963.2070304
0.206,2.141803333,21.87296345,112.0890587,47.96578631,-81.89999849,5.192598838,0,0,0,54332.30627,12.22626668,963.201933
0.208,2.18571321,22.09717688,112.113283,47.96578631,-81.89999846,5.14044186,0,0,0,54326.16507,12.22598126,963.1967831
0.21,2.230070947,22.32143876,112.1375067,47.96578631,-81.89999843,5.089308575,0,0,0,54320.02387,12.22569294,963.1915807
0.212,2.274876641,22.54574908,112.1617298,47.96578631,-81.8999984,5.039169221,0,0,0,54313.88267,12.2254017,963.1863257
0.214,2.32013039,22.77010786,112.1859524,47.96578631,-81.89999837,4.989995174,0,0,0,54307.74147,12.22510755,963.1810182
0.216,2.36583229,22.99451508,112.2101743,47.96578631,-81.89999833,4.941758898,0,0,0,54301.60027,12.22481049,963.1756581
0.218,2.411982437,23.21897074,112.2343956,47.96578631,-81.8999983,4.894433891,0,0,0,54295.45907,12.22451051,963.1702455
0.22,2.458580929,23.44347485,112.2586164,47.96578631,-81.89999827,4.847994636,0,0,0,54289.31787,12.22420762,963.1647803
0.222,2.505627862,23.6680274,112.2828364,47.96578631,-81.89999824,4.802416561,0,0,0,54283.17667,12.22390182,963.1592625
0.224,2.553123334,23.89262839,112.3070557,47.96578631,-81.8999982,4.75767599,0,0,0,54277.03546,12.2235931,963.153692
0.226,2.60106744,24.11727782,112.3312744,47.96578631,-81.89999817,4.713750105,0,0,0,54270.89426,12.22328146,963.148069
0.228,2.649460277,24.34197569,112.3554925,47.96578631,-81.89999814,4.670616909,0,0,0,54264.75306,12.22296691,963.1423933
0.23,2.698301943,24.56672199,112.37971,47.96578631,-81.8999981,4.628255187,0,0,0,54258.61186,12.22264944,963.136665
0.232,2.747592533,24.79151673,112.403927,47.96578631,-81.89999807,4.586644474,0,0,0,54252.47066,12.22232905,963.1308841
0.235,2.822370281,25.12879829,112.4380784,47.96578631,-81.89999801,4.528098508,0,0.000005625,0,54243.25886,12.22184299,963.1221139
0.2395,2.93643161,25.63492398,112.4883836,47.96578631,-81.89999793,4.443084237,0,1.43E-05,0,54229.44116,12.22110159,963.1087364
0.24625,3.111788892,26.39457002,112.5638319,47.96578631,-81.89999781,4.321498601,0,2.80E-05,0,54208.71461,12.21996177,963.0881699
0.25625,3.380992889,27.52098109,112.6758174,47.96578631,-81.89999762,4.153215768,0,4.96E-05,-0.000000005,54178.0086,12.21821194,963.0565967
0.26625,3.661449873,28.64861797,112.7968166,47.96578631,-81.89999742,3.997693883,0,7.29E-05,0,54147.3026,12.21638897,963.0237038
0.27625,3.953171956,29.7774654,112.9178027,47.96578631,-81.89999721,3.853501915,0,9.77E-05,6.10E-09,54116.5966,12.21449278,962.9894897
0.28625,4.25617125,30.90752318,113.0387723,47.96578631,-81.899997,3.719415457,0,0.000124318,5.30E-09,54085.89059,12.21252328,962.953953
0.29625,4.570459863,32.03879108,113.1597256,47.96578631,-81.89999677,3.594376896,0,0.000152573,0.000000007,54055.18459,12.21048041,962.9170922
0.30625,4.8960499,33.17126892,113.2806662,47.96578631,-81.89999654,3.477468801,0,0.000182522,-1.17E-08,54024.47859,12.20836407,962.8789059
0.31625,5.232953464,34.30495653,113.4015898,47.96578631,-81.8999963,3.367891499,0,0.0002142,0,53993.77258,12.2061742,962.8393928
0.32625,5.581182656,35.43985368,113.5224965,47.96578631,-81.89999605,3.2649446,0,0.000247624,7.90E-09,53963.06658,12.20391071,962.7985514
0.33625,5.940749572,36.57596021,113.6433907,47.96578631,-81.89999579,3.168012023,0,0.000282775,9.60E-09,53932.36058,12.20157352,962.7563802
0.34625,6.311666307,37.71327596,113.7642673,47.96578631,-81.89999553,3.076549598,0,0.000319718,6.30E-09,53901.65457,12.19916257,962.7128779
0.35625,6.693944952,38.85180071,113.8851267,47.96578631,-81.89999525,2.99007478,0,0.000358434,0,53870.94857,12.19667775,962.668043
0.36625,7.087597595,39.99153429,114.0059737,47.96578631,-81.89999497,2.908158091,0,0.000398932,5.20E-09,53840.24257,12.19411901,962.6218741
0.37625,7.492636319,41.13247655,114.1268023,47.96578631,-81.89999468,2.830416052,0,0.000441268,1.22E-08,53809.53656,12.19148626,962.5743699
0.38625,7.909073227,42.27463196,114.248446,47.96578631,-81.89999438,2.756504771,0,0.000485429,0.000000011,53778.6411,12.18877942,962.5255288
0.39625,8.336921023,43.41811841,114.3821312,47.96578631,-81.89999407,2.686107853,0,0.000531412,7.10E-09,53747.09303,12.18599841,962.4753494
0.40625,8.776193285,44.56298899,114.5205136,47.96578631,-81.89999375,2.618944973,0,0.000579286,0.000000013,53715.54496,12.18314314,962.4238302
0.41625,9.226903842,45.70924368,114.6589019,47.96578631,-81.89999343,2.554765735,0,0.000629025,2.63E-08,53683.99689,12.18021352,962.3709694
0.42625,9.68906652,46.85688259,114.7973013,47.96578631,-81.89999309,2.49334306,0,0.000680627,2.56E-08,53652.44882,12.17720946,962.3167654
0.43625,10.16269515,48.00590579,114.9357035,47.96578631,-81.89999275,2.43447049,0,0.000734125,4.17E-08,53620.90076,12.17413088,962.2612167
0.44625,10.64780354,49.15631328,115.0741117,47.96578631,-81.8999924,2.377960033,0,0.000789572,4.51E-08,53589.35269,12.17097767,962.2043216
0.45625,11.14440553,50.30810516,115.2125307,47.96578631,-81.89999204,2.323639679,0,0.000846874,0.000000036,53557.80462,12.16774976,962.1460785
0.46625,11.65251493,51.46128148,115.3509512,47.96578631,-81.89999167,2.271352155,0,0.000906155,3.09E-08,53526.25655,12.16444705,962.0864858
0.47625,12.17214557,52.61584226,115.4893779,47.96578631,-81.8999913,2.220953064,0,0.000967348,4.47E-08,53494.70848,12.16106945,962.0255419
0.48625,12.70331124,53.77178759,115.6278152,47.96578631,-81.89999091,2.172309666,0,0.001030431,5.61E-08,53463.16042,12.15761687,961.963245
0.49625,13.24602578,54.92911751,115.7662522,47.96578631,-81.89999052,2.125299602,0,0.00109547,0.000000091,53431.61235,12.15408923,961.8995937
0.50625,13.80030299,56.08783204,115.904696,47.96578631,-81.89999012,2.079810049,0,0.001162534,9.36E-08,53400.06428,12.15048643,961.8345863
0.51625,14.36615667,57.24793127,116.04315,47.96578631,-81.89998971,2.035736571,0,0.001231454,9.73E-08,53368.51621,12.14680838,961.7682211
0.52625,14.94360063,58.40941522,116.181602,47.96578631,-81.89998929,1.992982461,0,0.001302334,9.27E-08,53336.96815,12.14305499,961.7004966
0.53625,15.53264868,59.57228391,116.3200613,47.96578631,-81.89998886,1.951457965,0,0.001375197,7.82E-08,53305.42008,12.13922618,961.6314112
0.54625,16.13331461,60.73653743,116.4585305,47.96578631,-81.89998842,1.911079598,0,0.001450012,5.01E-08,53273.87201,12.13532185,961.5609631
0.55625,16.74561221,61.90217579,116.5969956,47.96578631,-81.89998798,1.87176978,0,0.001526735,8.84E-08,53242.32394,12.13134192,961.4891509
0.56625,17.36955529,63.069199,116.7354688,47.96578631,-81.89998753,1.833456126,0,0.001605339,7.81E-08,53210.77587,12.12728629,961.4159728
0.57625,18.00515762,64.23760714,116.8739512,47.96578631,-81.89998706,1.796071182,0,0.001685946,0.000000122,53179.22781,12.12315487,961.3414273
0.58625,18.65243299,65.40740022,117.0124279,47.96578631,-81.89998659,1.759551617,0,0.001768383,9.43E-08,53147.67974,12.11894758,961.2655127
0.59625,19.31139519,66.57857823,117.1509135,47.96578631,-81.89998611,1.72383846,0,0.001852835,8.64E-08,53116.13167,12.11466433,961.1882275
0.60625,19.98205798,67.75114125,117.2894061,47.96578631,-81.89998562,1.688876167,0,0.001939109,9.55E-08,53084.5836,12.11030502,961.10957
0.61625,20.66443515,68.92508927,117.4278938,47.96578631,-81.89998513,1.654612855,0,0.002027163,0.000000067,53053.03553,12.10586957,961.0295386
0.62625,21.35854045,70.10042229,117.5663901,47.96578631,-81.89998462,1.620999794,0,0.0021172,1.30E-07,53021.48747,12.10135788,960.9481317
0.63625,22.06438765,71.27714036,117.7048908,47.96578631,-81.89998411,1.587991234,0,0.002208959,1.51E-07,52989.9394,12.09676988,960.8653476
0.64625,22.78199051,72.45524345,117.8433879,47.96578631,-81.89998358,1.55554394,0,0.002302584,1.18E-07,52958.39133,12.09210546,960.7811849
0.65625,23.51136279,73.63473157,117.9818929,47.96578631,-81.89998305,1.523617281,0,0.002397868,1.09E-07,52926.84326,12.08736454,960.6956417
0.66625,24.25251822,74.81560476,118.1203999,47.96578631,-81.89998251,1.492173294,0,0.00249494,9.65E-08,52895.2952,12.08254703,960.6087166
0.67625,25.00547055,75.99786294,118.2589044,47.96578631,-81.89998196,1.461175736,0,0.002593771,7.65E-08,52863.74713,12.07765284,960.5204079
0.68625,25.77023352,77.18150614,118.3974165,47.96578631,-81.8999814,1.430590663,0,0.002694246,0.000000135,52832.19906,12.07268188,960.430714
0.69625,26.54682086,78.36653438,118.5359275,47.96578631,-81.89998083,1.400385988,0,0.002796269,1.76E-07,52800.65099,12.06763406,960.3396333
0.70625,27.33524628,79.55294755,118.6744377,47.96578631,-81.89998025,1.370531666,0,0.002899842,1.53E-07,52769.10292,12.0625093,960.2471643
0.71625,28.13552352,80.74074567,118.8129548,47.96578631,-81.89997967,1.340999235,0,0.003004974,0.000000121,52737.55486,12.05730749,960.1533051
0.72625,28.94766628,81.92992873,118.9514677,47.96578631,-81.89997907,1.311761795,0,0.003111638,1.90E-07,52706.00679,12.05202857,960.0580544
0.73625,29.77168827,83.12049661,119.0899815,47.96578631,-81.89997847,1.282793861,0,0.003219651,1.02E-07,52674.45872,12.04667242,959.9614104
0.74625,30.60760318,84.31244933,119.2285018,47.96578631,-81.89997785,1.254071585,0,0.003329083,1.46E-07,52642.91065,12.04123898,959.8633716
0.75625,31.45542471,85.50578664,119.3669706,47.96578631,-81.89997723,1.225572442,0,0.003439773,2.07E-07,52611.36258,12.03572814,959.7639364
0.76625,32.31516652,86.70050809,119.5054305,47.96578631,-81.8999766,1.19727552,0,0.00355156,1.48E-07,52579.81452,12.03013981,959.6631031
0.77625,33.1868423,87.89661361,119.6438932,47.96578631,-81.89997595,1.169160703,0,0.003664436,1.52E-07,52548.26645,12.02447392,959.5608701
0.78625,34.07046571,89.09410307,119.7823411,47.96578631,-81.8999753,1.141209924,0,0.003778443,2.58E-07,52516.71838,12.01873037,959.4572359
0.79625,34.96605039,90.29297633,119.9207908,47.96578631,-81.89997464,1.113405249,0,0.003893469,2.47E-07,52485.17031,12.01290907,959.3521988
0.80625,35.87360999,91.4932333,120.0592395,47.96578631,-81.89997397,1.085730473,0,0.004009331,1.93E-07,52453.62225,12.00700993,959.2457573
0.81625,36.79315815,92.6948738,120.1976752,47.96578631,-81.89997329,1.058170056,0,0.004125945,3.03E-07,52422.07418,12.00103287,959.1379097
0.82625,37.72470849,93.89789767,120.336112,47.96578631,-81.8999726,1.030709914,0,0.00424326,1.93E-07,52390.52611,11.99497779,959.0286545
0.83625,38.66827463,95.10230481,120.4745435,47.96578631,-81.8999719,1.003337045,0,0.004360999,1.49E-07,52358.97804,11.98884461,958.91799
0.84625,39.62387017,96.30809497,120.6129641,47.96578631,-81.89997119,0.976039459,0,0.004479349,2.08E-07,52327.42997,11.98263324,958.8059146
0.85625,40.59150872,97.51526798,120.7513848,47.96578631,-81.89997048,0.948805996,0,0.004597928,3.50E-07,52295.88191,11.97634359,958.6924268
0.86625,41.57120385,98.7238237,120.8897957,47.96578631,-81.89996975,0.921626211,0,0.004716789,3.59E-07,52264.33384,11.96997557,958.577525
0.87625,42.56296914,99.93376182,121.0281981,47.96578631,-81.89996901,0.894491522,0,0.004835713,4.33E-07,52232.78577,11.9635291,958.4612076
0.88625,43.56681815,101.1450822,121.1665996,47.96578631,-81.89996826,0.867393298,0,0.004954393,3.88E-07,52201.2377,11.95700408,958.3434729
0.89625,44.58276445,102.3577846,121.3049865,47.96578631,-81.8999675,0.840324246,0,0.005073126,4.54E-07,52169.68963,11.95040043,958.2243194
0.90625,45.61082156,103.5718686,121.4433674,47.96578631,-81.89996673,0.813278418,0,0.005191378,4.42E-07,52138.14157,11.94371806,958.1037455
0.91625,46.65100302,104.7873342,121.5817465,47.96578631,-81.89996596,0.786249648,0,0.005309164,4.66E-07,52106.5935,11.93695688,957.9817497
0.92625,47.70332235,106.0041809,121.7201057,47.96578631,-81.89996517,0.759233875,0,0.005426088,5.66E-07,52075.04543,11.9301168,957.8583303
0.93625,48.76779305,107.2224085,121.8584617,47.96578631,-81.89996437,0.732227806,0,0.005542241,7.31E-07,52043.49736,11.92319774,957.7334857
0.94625,49.84442862,108.4420167,121.9968112,47.96578631,-81.89996356,0.705228241,0,0.005657595,6.24E-07,52011.94929,11.91619961,957.6072144
0.95625,50.93324252,109.6630052,122.1351426,47.96578631,-81.89996274,0.678233451,0,0.005771617,0.000000647,51980.40123,11.90912232,957.4795148
0.96625,52.03424824,110.8853736,122.2734702,47.96578631,-81.89996191,0.651242949,0,0.00588399,6.79E-07,51948.85316,11.90196578,957.3503852
0.97625,53.14745922,112.1091215,122.4117858,47.96578631,-81.89996107,0.624256931,0,0.005994878,7.69E-07,51917.30509,11.89472991,957.2198243
0.98625,54.27288891,113.3342486,122.5500862,47.96578631,-81.89996021,0.59727639,0,0.006103945,8.40E-07,51885.75702,11.88741462,957.0878302
0.99625,55.41055072,114.5607545,122.6883816,47.96578631,-81.89995935,0.570303195,0,0.006210936,9.11E-07,51854.20896,11.88001982,956.9544015
1.00625,56.56045807,115.7886389,122.8266592,47.96578631,-81.89995848,0.543339865,0,0.006315812,9.00E-07,51822.66089,11.87254542,956.8195367
1.01625,57.72262437,117.0179011,122.9649247,47.96578631,-81.89995759,0.516390401,0,0.006418217,1.13E-06,51791.11282,11.86499134,956.6832341
1.02625,58.89706298,118.248541,123.1031839,47.96578631,-81.8999567,0.489459152,0,0.006518026,1.26E-06,51759.56475,11.85735749,956.5454921
1.03625,60.08378728,119.4805579,123.2414192,47.96578631,-81.89995579,0.462551863,0,0.006614918,1.42E-06,51728.01668,11.84964378,956.4063092
1.04625,61.28281062,120.7139515,123.3796456,47.96578631,-81.89995487,0.435675343,0,0.006708527,0.00000163,51696.46862,11.84185013,956.2656839
1.05625,62.49414635,121.9487212,123.517861,47.96578631,-81.89995394,0.408836666,0,0.006798722,0.000001722,51664.92055,11.83397645,956.1236145
1.06625,63.71780778,123.1848666,123.6560529,47.96578631,-81.899953,0.382044696,0,0.006885609,1.73E-06,51633.37248,11.82602265,955.9800995
1.07625,64.95380822,124.4223871,123.794236,47.96578631,-81.89995205,0.355308124,0,0.006968256,1.88E-06,51601.82441,11.81798864,955.8351374
1.08625,66.20216097,125.6612823,123.9324014,47.96578631,-81.89995108,0.328637677,0,0.007046698,2.34E-06,51570.27634,11.80987435,955.6887265
1.09625,67.4628793,126.9015515,124.0705467,47.96578631,-81.8999501,0.302043935,0,0.007121016,0.00000238,51538.72828,11.80167968,955.5408654
1.10625,68.73597648,128.1431944,124.2086816,47.96578631,-81.89994912,0.275539427,0,0.007190579,2.72E-06,51507.18021,11.79340455,955.3915524
1.11625,70.02146469,129.3859991,124.3263943,47.96578631,-81.89994812,0.249137529,0,0.007255053,3.20E-06,51475.19202,11.78504888,955.2407862
1.12625,71.31935225,130.6294022,124.3871377,47.96578631,-81.8999471,0.222853075,0,0.007314332,3.70E-06,51443.03688,11.77661261,955.0885657
1.13625,72.62964451,131.8733721,124.4446845,47.96578631,-81.89994608,0.19670084,0,0.007368248,4.18E-06,51410.88174,11.76809571,954.9348904
1.14625,73.95234663,133.1179074,124.5021162,47.96578631,-81.89994504,0.170696748,0,0.007416293,4.67E-06,51378.7266,11.75949814,954.7797596
1.15625,75.28746375,134.3630065,124.5594507,47.96578631,-81.89994399,0.144856091,0,0.007458257,5.64E-06,51346.57146,11.75081988,954.6231728
1.16625,76.63500099,135.608668,124.616674,47.96578631,-81.89994293,0.119197006,0,0.007493897,7.21E-06,51314.41633,11.74206089,954.4719176
1.17625,77.99496345,136.8548905,124.6737849,47.96578631,-81.89994185,0.09373752,0,0.007522923,9.01E-06,51282.26119,11.73322113,954.3199752
1.18625,79.36735621,138.1016725,124.730797,47.96578631,-81.89994076,0.06849691,0,0.007544977,1.25E-05,51250.10605,11.72430058,954.1666441
1.19625,80.75218431,139.3490127,124.7876986,47.96578631,-81.89993966,0.043494607,0,0.007559942,0.000020392,51217.95091,11.7152992,954.0119236
1.20625,82.14945278,140.5969095,124.8444925,47.96578631,-81.89993855,0.018752888,0,0.007567609,4.81E-05,51185.79578,11.70621695,953.8558132
1.21625,83.55916663,141.8453616,124.901186,47.96578631,-81.89993742,0.005710432,0,-0.007565599,0.000160161,51153.64064,11.69705381,953.6983124
1.22625,84.98133086,143.0943675,124.9577623,47.96578631,-81.89993628,0.029866908,0,-0.007559278,3.12E-05,51121.4855,11.68780975,953.5394205
1.23625,86.41595043,144.3439259,125.0142354,47.96578631,-81.89993513,0.053696946,0,-0.007542971,1.77E-05,51089.33036,11.67848472,953.3791371
1.24625,87.86303028,145.5940353,125.0706038,47.96578631,-81.89993396,0.077175866,0,-0.00751859,1.23E-05,51057.17523,11.6690787,953.2174615
1.25625,89.32257535,146.8446943,125.1268546,47.96578631,-81.89993278,0.100278597,0,-0.007485398,9.83E-06,51025.02009,11.65959166,953.0543932
1.26625,90.79459055,148.0959016,125.1830029,47.96578631,-81.89993158,0.122980701,0,-0.00744369,7.84E-06,50992.86495,11.65002356,952.8899317
1.27625,92.27908076,149.3476558,125.2390389,47.96578631,-81.89993037,0.145256234,0,-0.007393052,6.88E-06,50960.70981,11.64037437,952.7240765
1.28625,93.77605086,150.5999556,125.2949611,47.96578631,-81.89992915,0.167079962,0,-0.007333238,6.12E-06,50928.55467,11.63064407,952.5568269
1.29625,95.2855057,151.8527996,125.3507789,47.96578631,-81.89992791,0.188425411,0,-0.007264132,0.000005345,50896.39954,11.62083261,952.3881824
1.30625,96.80745014,153.1061867,125.4064764,47.96578631,-81.89992666,0.209265374,0,-0.007185649,4.73E-06,50864.2444,11.61093997,952.2181426
1.31625,98.34188898,154.3601154,125.4620637,47.96578631,-81.89992539,0.229573135,0,-0.007097852,4.24E-06,50832.08926,11.60096612,952.0467068
1.32625,99.88882705,155.6145847,125.5175424,47.96578631,-81.89992411,0.249322708,0,-0.007000424,4.04E-06,50799.93412,11.59091102,951.8738745
1.33625,101.4482692,156.8695932,125.5728959,47.96578631,-81.89992282,0.268486864,0,-0.006893382,4.15E-06,50767.77899,11.58077465,951.6996452
1.34625,103.0202201,158.1251399,125.6281406,47.96578631,-81.89992151,0.28703875,0,-0.0067767,3.90E-06,50735.62385,11.57055697,951.5240184
1.35625,104.6046846,159.3812236,125.6832679,47.96578631,-81.89992018,0.304950652,0,-0.006650339,3.48E-06,50703.46871,11.56025795,951.3469934
1.36625,106.2016674,160.6378433,125.738273,47.96578631,-81.89991884,0.322196444,0,-0.006514016,3.41E-06,50671.31357,11.54987756,951.1685699
1.37625,107.8111734,161.8949978,125.7931661,47.96578631,-81.89991749,0.338749165,0,-0.006368089,3.50E-06,50639.15843,11.53941577,950.9887472
1.38625,109.4332073,163.1526863,125.8479323,47.96578631,-81.89991612,0.354582678,0,-0.006212172,3.00E-06,50607.0033,11.52887255,950.8075248
1.39625,111.0677739,164.4109077,125.9025787,47.96578631,-81.89991473,0.369670598,0,-0.006046293,2.76E-06,50574.84816,11.51824787,950.6249022
1.40625,112.7148778,165.6696611,125.9571086,47.96578631,-81.89991333,0.383986592,0,-0.005870559,3.08E-06,50542.69302,11.50754169,950.4408788
1.41625,114.3745238,166.9289458,126.011503,47.96578631,-81.89991192,0.397505636,0,-0.005685608,3.12E-06,50510.53788,11.49675399,950.2554542
1.42625,116.0467167,168.1887607,126.0657787,47.96578631,-81.89991049,0.410203011,0,-0.005490845,2.42E-06,50478.38275,11.48588474,950.0686278
1.43625,117.7314613,169.4491053,126.1199275,47.96578631,-81.89990904,0.42205522,0,-0.0052869,2.28E-06,50446.22761,11.4749339,949.880399
1.44625,119.4287623,170.7099788,126.1739422,47.96578631,-81.89990757,0.433037797,0,-0.005073127,2.23E-06,50414.07247,11.46390144,949.6907674
1.45625,121.1386244,171.9713805,126.2278337,47.96578631,-81.89990609,0.443128221,0,-0.004850659,2.52E-06,50381.91733,11.45278734,949.4997323
1.46625,122.8610524,173.2333097,126.2815869,47.96578631,-81.8999046,0.452304789,0,-0.00461909,2.52E-06,50349.7622,11.44159156,949.3072934
1.47625,124.596051,174.495766,126.3352074,47.96578631,-81.89990309,0.460548343,0,-0.004378573,2.29E-06,50317.60706,11.43031407,949.11345
1.48625,126.3436252,175.7587488,126.388699,47.96578631,-81.89990156,0.467837175,0,-0.004130297,2.23E-06,50285.45192,11.41895483,948.9182015
1.49625,128.1037796,177.0222576,126.4420414,47.96578631,-81.89990002,0.474154507,0,-0.003873162,1.89E-06,50253.29678,11.40751383,948.7215476
1.50625,129.8765191,178.2862919,126.4952516,47.96578631,-81.89989846,0.479482617,0,-0.003608585,2.14E-06,50221.14164,11.39599102,948.5234875
1.51625,131.6618485,179.5508514,126.5483211,47.96578631,-81.89989688,0.483806498,0,-0.003336739,1.78E-06,50188.98651,11.38438638,948.3240209
1.52625,133.4597726,180.8159357,126.601242,47.96578631,-81.89989529,0.487111417,0,-0.003057826,1.97E-06,50156.83137,11.37269987,948.1231471
1.53625,135.2702964,182.0815444,126.6540253,47.96578631,-81.89989368,0.489385832,0,-0.002772889,1.88E-06,50124.67623,11.36093147,947.9208656
1.54625,137.0934246,183.3476774,126.7066557,47.96578631,-81.89989205,0.490618472,0,-0.002481089,0.000002186,50092.52109,11.34908114,947.7171759
1.55625,138.9291622,184.6143341,126.7591386,47.96578631,-81.89989041,0.49080187,0,-0.002184208,2.08E-06,50060.36596,11.33714884,947.5120773
1.56625,140.7775141,185.8815145,126.811478,47.96578631,-81.89988875,0.489927261,0,-0.001882047,2.18E-06,50028.21082,11.32513456,947.3055695
1.57625,142.638484,187.1489596,126.8370978,47.96578631,-81.89988707,0.487992479,0,-0.001575313,2.29E-06,49996.45321,11.31303825,947.0976519
1.58625,144.5120709,188.4159806,126.7943104,47.96578631,-81.89988538,0.484994321,0,-0.001264372,2.54E-06,49964.84639,11.30085994,946.8883246
1.59625,146.3982701,189.682539,126.7475999,47.96578631,-81.89988367,0.480934415,0,-0.000950932,2.39E-06,49933.23958,11.28859964,946.6775883
1.60625,148.2970768,190.9486335,126.7006253,47.96578631,-81.89988194,0.475812781,0,-0.000634506,2.55E-06,49901.63276,11.2762574,946.4654433
1.61625,150.2084862,192.2142628,126.6533979,47.96578631,-81.89988019,0.469636164,0,-0.000316837,2.53E-06,49870.02594,11.26383324,946.2518903
1.62625,152.1324937,193.4794256,126.6059029,47.96578631,-81.89987843,0.462410363,0,2.54E-06,0.000002521,49838.41912,11.25132719,946.0369298
1.63625,154.0690945,194.7441206,126.5581475,47.96578631,-81.89987666,0.454145368,0,0.000322037,0.000002603,49806.81231,11.23873928,945.8205623
1.64625,156.0182838,196.0083465,126.5101361,47.96578631,-81.89987486,0.444852907,0,0.000640479,2.57E-06,49775.20549,11.22606955,945.6027884
1.65625,157.9800569,197.272102,126.4618503,47.96578631,-81.89987305,0.434549527,0,0.000957884,2.23E-06,49743.59867,11.21331803,945.3836085
1.66625,159.9544093,198.5353855,126.4133086,47.96578631,-81.89987122,0.423253713,0,0.001273012,2.38E-06,49711.99185,11.20048474,945.1630232
1.67625,161.9413362,199.7981957,126.3645037,47.96578631,-81.89986938,0.410985302,0,0.001583745,2.49E-06,49680.38504,11.18756971,944.9410329
1.68625,163.9408331,201.060531,126.3154308,47.96578631,-81.89986752,0.397770079,0,0.001891048,3.10E-06,49648.77822,11.17457298,944.7176384
1.69625,165.9528952,202.3223899,126.2661027,47.96578631,-81.89986564,0.383636679,0,0.002192863,3.12E-06,49617.1714,11.16149458,944.4928399
1.70625,167.9775181,203.5837693,126.2160809,47.96578631,-81.89986375,0.368614823,0,0.002488925,3.16E-06,49585.56458,11.14833453,944.2666381
1.71625,170.0146972,204.844663,126.1656137,47.96578631,-81.89986183,0.352737953,0,0.002776975,2.98E-06,49553.95776,11.13509287,944.0390334
1.72625,172.0644277,206.105069,126.1148791,47.96578631,-81.89985991,0.336045398,0,0.003057389,3.33E-06,49522.35095,11.12176962,943.8100265
1.73625,174.1267052,207.3649854,126.0638811,47.96578631,-81.89985796,0.318577153,0,0.003327529,3.25E-06,49490.74413,11.10836481,943.5796177
1.74625,176.2015251,208.6244101,126.0126189,47.96578631,-81.899856,0.30037716,0,0.003588259,3.05E-06,49459.13731,11.09487848,943.3478076
1.75625,178.2888827,209.8833411,125.9610874,47.96578632,-81.89985403,0.281493544,0,0.003836911,3.66E-06,49427.53049,11.08131066,943.1145967
1.76625,180.3887736,211.1417758,125.9092834,47.96578632,-81.89985203,0.261975882,0,0.004072657,3.69E-06,49395.92368,11.06766137,942.8799856
1.77625,182.5011932,212.3997121,125.8572213,47.96578632,-81.89985002,0.241877405,0,0.004295434,3.84E-06,49364.31686,11.05393064,942.6439746
1.78625,184.6261371,213.6571475,125.8048906,47.96578632,-81.899848,0.221258222,0,0.004502551,4.28E-06,49332.71004,11.04011851,942.4065644
1.79625,186.7636005,214.9140794,125.7523011,47.96578632,-81.89984596,0.200176424,0,0.004694748,4.11E-06,49301.10322,11.02622499,942.1677555
1.80625,188.9135791,216.1705051,125.6994615,47.96578632,-81.8998439,0.178693558,0,0.004870009,4.63E-06,49269.49641,11.01225013,941.9275482
1.81625,191.0760684,217.4264219,125.6463559,47.96578632,-81.89984183,0.156877468,0,0.005028788,0.000005085,49237.88959,10.99819395,941.6859433
1.82625,193.2510637,218.681827,125.5930063,47.96578632,-81.89983974,0.1347936,0,0.005167674,5.75E-06,49206.28277,10.98405648,941.442941
1.83625,195.4385606,219.9367176,125.5394098,47.96578632,-81.89983764,0.112515282,0,0.005287603,6.13E-06,49174.67595,10.96983775,941.1985421
1.84625,197.6385545,221.1910905,125.485563,47.96578632,-81.89983552,0.090115147,0,0.005386574,7.26E-06,49143.06913,10.95553779,940.9527469
1.85625,199.8510409,222.4449428,125.4314821,47.96578632,-81.89983339,0.067668339,0,0.005465784,8.97E-06,49111.46232,10.94115663,940.7055559
1.86625,202.0760153,223.6982715,125.3771578,47.96578632,-81.89983124,0.045248657,0,0.005522268,0.000012709,49079.8555,10.9266943,940.4569698
1.87625,204.3134729,224.9510733,125.3225993,47.96578632,-81.89982908,0.022937623,0,0.005556108,2.33E-05,49048.24868,10.91215082,940.2069889
1.88625,206.5634094,226.203345,125.2678165,47.96578632,-81.8998269,0.000820809,0,0.00553521,0.000601828,49016.64186,10.89752624,939.9556139
1.89625,208.8258199,227.4550835,125.2127931,47.96578632,-81.89982471,0.021038276,0,-0.005555782,0.000021214,48985.03505,10.88282057,939.7028451
1.90625,211.1007,228.7062855,125.1575496,47.96578632,-81.8998225,0.042541142,0,-0.005519325,0.000009959,48953.42823,10.86803385,939.4486832
1.91625,213.3880448,229.9569477,125.1020844,47.96578632,-81.89982028,0.063611673,0,-0.005459483,6.53E-06,48921.82141,10.85316611,939.1931287
1.92625,215.6878498,231.207067,125.046392,47.96578632,-81.89981804,0.084167368,0,-0.005374879,4.98E-06,48890.21459,10.83821737,938.9361821
1.93625,218.0001101,232.4566401,124.9904889,47.96578632,-81.8998158,0.104127382,0,-0.005266918,2.71E-06,48858.60778,10.82318768,938.6778439
1.94625,220.3248211,233.7056637,124.9343664,47.96578632,-81.89981353,0.123412179,0,-0.005133612,3.02E-06,48827.00096,10.80807706,938.4181146
1.95625,222.6619777,234.9541347,124.87803,47.96578632,-81.89981125,0.141942185,0,-0.004976791,1.66E-06,48795.39414,10.79288554,938.1569948
1.96625,225.0115753,236.2020499,124.8214896,47.96578632,-81.89980896,0.159638137,0,-0.004796333,1.76E-06,48763.78732,10.77761316,937.8944851
1.97625,227.3736089,237.4494062,124.7647293,47.96578632,-81.89980666,0.176428619,0,-0.004592799,9.77E-07,48732.1805,10.76225994,937.6305859
1.98625,229.7480736,238.6962005,124.7077656,47.96578632,-81.89980434,0.192240246,0,-0.004366742,3.21E-07,48700.57369,10.74682592,937.3652979
1.99625,232.1349634,239.9422523,124.6303407,47.96578632,-81.89980201,0.207006183,0,-0.004118433,0.000000904,48670.09778,10.73131114,937.0986217
2.00625,234.5342666,241.1865779,124.4566399,47.96578632,-81.89979967,0.22065869,0,-0.003848515,4.13E-07,48640.64509,10.71571566,936.8305586
2.01625,236.9459659,242.4290284,124.2685973,47.96578632,-81.89979731,0.233138506,0,-0.003557818,2.09E-08,48611.19239,10.70003962,936.5611105
2.02625,239.3700429,243.6695998,124.0802332,47.96578632,-81.89979494,0.244386696,0,-0.003248461,0.000000849,48581.73969,10.68428312,936.2902795
2.03625,241.8064796,244.9082882,123.8915476,47.96578632,-81.89979255,0.254350568,0,-0.002921451,1.79E-07,48552.28699,10.66844628,936.0180677
2.04625,244.2552574,246.1450899,123.7025499,47.96578632,-81.89979016,0.262984623,0,-0.002577413,5.31E-07,48522.8343,10.65252922,935.744477
2.05625,246.7163579,247.3800012,123.5132246,47.96578632,-81.89978775,0.270246502,0,-0.002218131,4.37E-07,48493.3816,10.63653207,935.4695095
2.06625,249.1897627,248.6130185,123.3235823,47.96578632,-81.89978533,0.276099509,0,-0.001843648,0.000000703,48463.9289,10.62045494,935.1931674
2.07625,251.6754531,249.8441381,123.1336253,47.96578632,-81.8997829,0.280513797,0,-0.001457826,2.22E-07,48434.47621,10.60429795,934.9154526
2.08625,254.1734105,251.0733566,122.9433366,47.96578632,-81.89978045,0.283464375,0,-0.001062842,4.08E-07,48405.02351,10.58806123,934.6363673
2.09625,256.6836161,252.3006706,122.7527334,47.96578632,-81.89977799,0.284935051,0,-0.000657806,3.67E-07,48375.57081,10.57174489,934.3559136
2.10625,259.206051,253.5260765,122.561809,47.96578632,-81.89977552,0.284916917,0,-0.000246123,1.12E-06,48346.11811,10.55534907,934.0740936
2.11625,261.7406963,254.7495711,122.3705569,47.96578632,-81.89977304,0.283406673,0,0.000170472,-2.17E-07,48316.66542,10.53887387,933.7909093
2.12625,264.2875329,255.9711509,122.1789896,47.96578632,-81.89977054,0.280410194,0,0.000587755,-0.000000521,48287.21272,10.52231943,933.506363
2.13625,266.8465417,257.1908126,121.9870966,47.96578632,-81.89976803,0.275941924,0,0.001006934,6.78E-07,48257.76002,10.50568588,933.2204567
2.14625,269.4177035,258.4085527,121.7948817,47.96578632,-81.89976552,0.270020604,0,0.001422205,-0.000000026,48228.30733,10.48897332,932.9331926
2.15625,272.000999,259.624368,121.6023536,47.96578632,-81.89976298,0.262679028,0,0.001833827,0.000000934,48198.85463,10.4721819,932.6445729
2.16625,274.5964087,260.8382549,121.4094982,47.96578632,-81.89976044,0.253955082,0,0.002239381,-1.70E-07,48169.40193,10.45531174,932.3545997
2.17625,277.2039131,262.05021,121.2163295,47.96578632,-81.89975788,0.243888698,0,0.002633252,1.35E-06,48139.94923,10.43836296,932.0632752
2.18625,279.8234927,263.2602298,121.0228516,47.96578632,-81.89975531,0.232541623,0,0.003016945,0.00000157,48110.49654,10.4213357,931.7706016
2.19625,282.4551277,264.4683106,120.8290507,47.96578632,-81.89975273,0.219971083,0,0.003386748,1.16E-06,48081.04384,10.40423007,931.4765811
2.20625,285.0987983,265.6744489,120.6349467,47.96578632,-81.89975014,0.206248233,0,0.003738007,5.66E-07,48051.59114,10.38704621,931.181216
2.21625,287.7544848,266.8786409,120.4405373,47.96578632,-81.89974753,0.191454397,0,0.004071308,3.86E-07,48022.13845,10.36978425,930.8845083
2.22625,290.422167,268.0808828,120.2458173,47.96578632,-81.89974491,0.17567288,0,0.004382897,3.32E-08,47992.68575,10.35244431,930.5864605
2.23625,293.101825,269.2811708,120.0508028,47.96578632,-81.89974228,0.158997194,0,0.004671475,1.53E-07,47963.23305,10.33502654,930.2870746
2.24625,295.7934387,270.479501,119.8554875,47.96578632,-81.89973964,0.141525068,0,0.004932253,4.74E-07,47933.78036,10.31753105,929.986353
2.25625,298.4969877,271.6758692,119.6598734,47.96578632,-81.89973698,0.123369808,0,0.005166212,0.000001382,47904.32766,10.29995798,929.6842979
2.26625,301.2124519,272.8702715,119.4639723,47.96578632,-81.89973431,0.104637572,0,0.005369825,1.42E-06,47874.87496,10.28230746,929.3809115
2.27625,303.9398107,274.0627039,119.2677733,47.96578633,-81.89973163,0.085449965,0,0.005540937,2.29E-06,47845.42226,10.26457963,929.0761963
2.28625,306.6790439,275.2531622,119.0712841,47.96578633,-81.89972893,0.065927679,0,0.005678336,3.81E-06,47815.96957,10.24677461,928.7701543
2.29625,309.4301308,276.4416422,118.8745106,47.96578633,-81.89972622,0.046199308,0,0.005781408,0.000004643,47786.51687,10.22889255,928.4627881
2.30625,312.1930509,277.6281399,118.6774362,47.96578633,-81.8997235,0.026395468,0,0.005849044,9.72E-06,47757.06417,10.21093357,928.1540997
2.31625,314.9677835,278.812651,118.4800729,47.96578633,-81.89972076,0.00664606,0,0.005879356,4.25E-05,47727.61148,10.19289781,927.8440916
2.32625,317.754308,279.9951718,118.2824204,47.96578633,-81.89971801,0.012920339,0,-0.005871475,2.47E-05,47698.15878,10.1747854,927.532766
2.33625,320.5526037,281.175698,118.0844594,47.96578633,-81.89971525,0.032161347,0,-0.005825164,9.69E-06,47668.70608,10.15659647,927.2201253
2.34625,323.3626497,282.3542257,117.8862033,47.96578633,-81.89971247,0.050944904,0,-0.005741275,6.28E-06,47639.25338,10.13833118,926.9061718
2.35625,326.1844252,283.5307512,117.6876428,47.96578633,-81.89970968,0.069141482,0,-0.005619561,0.000005095,47609.80069,10.11998963,926.5909078
2.36625,329.0179094,284.7052708,117.4887603,47.96578633,-81.89970687,0.086618613,0,-0.005459535,4.36E-06,47580.34799,10.10157199,926.2743356
2.37625,331.8630815,285.8777809,117.289562,47.96578633,-81.89970405,0.103254659,0,-0.005262199,4.44E-06,47550.89529,10.08307837,925.9564576
2.38625,334.7199206,287.0482781,117.0900321,47.96578633,-81.89970121,0.118920544,0,-0.005029653,4.40E-06,47521.4426,10.06450891,925.6372761
2.39625,337.5884058,288.2167592,116.8901551,47.96578633,-81.89969836,0.133506713,0,-0.004763094,3.47E-06,47491.9899,10.04586376,925.3167934
2.40625,340.4685163,289.3832212,116.6899317,47.96578633,-81.8996955,0.146907086,0,-0.004462153,3.71E-06,47462.5372,10.02714304,924.9950119
2.41625,343.3602312,290.5476612,116.4893412,47.96578633,-81.89969262,0.15901554,0,-0.004132006,3.27E-06,47433.0845,10.0083469,924.6719339
2.42625,346.2635296,291.7100765,116.2883711,47.96578633,-81.89968972,0.169742408,0,-0.003770659,2.86E-06,47403.63181,9.989475456,924.3475618
2.43625,349.1783908,292.8704646,116.0870184,47.96578633,-81.89968681,0.179006012,0,-0.003385114,2.46E-06,47374.17911,9.970528858,924.0218977
2.44625,352.104794,294.0288232,115.8852604,47.96578633,-81.89968389,0.186733229,0,-0.002976121,2.45E-06,47344.72641,9.951507237,923.6949441
2.45625,355.0427185,295.1851501,115.6830898,47.96578633,-81.89968095,0.192867949,0,-0.002546778,2.18E-06,47315.27372,9.932410728,923.3667033
2.46625,357.9921436,296.3394433,115.4805029,47.96578633,-81.89967799,0.197358747,0,-0.002099287,1.88E-06,47285.82102,9.913239465,923.0371776
2.47625,360.9530486,297.4917007,115.277478,47.96578633,-81.89967502,0.200171038,0,-0.001639012,3.15E-06,47256.36832,9.893993583,922.7063693
2.48625,363.9254129,298.6419206,115.0740149,47.96578633,-81.89967204,0.201284735,0,-0.001167875,3.02E-06,47226.91562,9.874673214,922.3742807
2.49625,366.9092162,299.7901012,114.8701131,47.96578633,-81.89966903,0.200689091,0,-0.000691384,2.06E-06,47197.46293,9.855278493,922.0409141
2.50625,369.9044379,300.9362407,114.6657545,47.96578633,-81.89966602,0.198389317,0,-0.000212647,1.56E-06,47168.01023,9.835809552,921.7062718
2.51625,372.9110576,302.0803373,114.4609491,47.96578633,-81.89966299,0.194410399,0,0.000265038,2.97E-06,47138.55753,9.816266524,921.370356
2.52625,375.9290551,303.2223892,114.2557012,47.96578633,-81.89965994,0.18878492,0,0.000735822,1.34E-06,47109.10484,9.79664954,921.033169
2.53625,378.9584099,304.3623408,114.0381807,47.96578633,-81.89965688,0.181561954,0,0.001196662,0.00000155,47079.65214,9.776958735,920.6947131
2.54625,381.9991008,305.5001119,113.8185125,47.96578633,-81.8996538,0.172807536,0,0.00164221,2.16E-06,47050.19944,9.757194244,920.3549907
2.55625,385.0511063,306.6356961,113.5982415,47.96578633,-81.89965071,0.162602661,0,0.00206752,0.000001175,47020.74674,9.737356208,920.0140041
2.56625,388.1144047,307.7689603,113.3505121,47.96578633,-81.8996476,0.151037301,0,0.002472484,1.34E-06,46991.29405,9.71744477,919.6717559
2.57625,391.1889722,308.8997469,113.1003929,47.96578633,-81.89964448,0.138221651,0,0.00284781,1.02E-06,46961.84135,9.697460081,919.3282486
2.58625,394.2747847,310.0280455,112.8493493,47.96578633,-81.89964134,0.124273525,0,0.00319388,2.40E-07,46932.38865,9.6774023,918.983485
2.59625,397.3718174,311.153725,112.5726913,47.96578634,-81.89963819,0.109323068,0,0.00350559,5.90E-07,46902.93596,9.657271588,918.6374678
2.60625,400.4800442,312.2766506,112.2947422,47.96578634,-81.89963502,0.093515545,0,0.003778914,7.29E-07,46873.48326,9.637068114,918.2901999
2.61625,403.5994382,313.3968105,112.0155496,47.96578634,-81.89963184,0.076998916,0,0.004011574,1.42E-06,46844.03056,9.616792053,917.9416844
2.62625,406.7299668,314.5130242,111.6095239,47.96578634,-81.89962865,0.059939451,0,0.004199741,4.15E-07,46817.96522,9.596443617,917.5919248
2.63625,409.871544,315.6157233,110.2529302,47.96578634,-81.89962544,0.042506932,0,0.004342105,-3.42E-07,46796.48277,9.576023367,917.2409308
2.64625,413.024025,316.7027845,108.6871707,47.96578634,-81.89962222,0.024868797,0,0.004436914,2.57E-07,46775.00032,9.55553224,916.8887186
2.65625,416.187255,317.7741991,107.1206614,47.96578634,-81.89961898,0.007204103,0,0.004481136,8.34E-08,46753.51787,9.534971246,916.5353055
2.66625,419.3610788,318.8299586,105.5534585,47.96578634,-81.89961573,0.010307382,0,-0.004476592,-3.06E-06,46732.03541,9.514341391,916.1807087
2.67625,422.5453412,319.8700551,103.985615,47.96578634,-81.89961247,0.027495034,0,-0.004419476,-1.53E-06,46710.55296,9.493643685,915.8249457
2.68625,425.7398871,320.8944809,102.4171844,47.96578634,-81.8996092,0.044174756,0,-0.004313706,-2.70E-06,46689.07051,9.472879137,915.4680338
2.69625,428.9445609,321.9032288,100.8482169,47.96578634,-81.89960592,0.060180192,0,-0.004159461,-8.14E-07,46667.58806,9.452048757,915.1099903
2.70625,432.1592074,322.8962921,99.27876022,47.96578634,-81.89960262,0.075348295,0,-0.003955123,-1.85E-06,46646.10561,9.431153555,914.7508327
2.71625,435.3836708,323.8736644,97.70885948,47.96578634,-81.89959931,0.089514197,0,-0.003707184,-2.13E-06,46624.62316,9.410194543,914.3905782
2.72625,438.6177956,324.8353401,96.13855644,47.96578634,-81.899596,0.102536871,0,-0.003413413,-7.96E-07,46603.14071,9.389172731,914.0292443
2.73625,441.861426,325.7813138,94.56789053,47.96578634,-81.89959267,0.114274052,0,-0.003078733,-1.10E-06,46581.65826,9.368089134,913.6668484
2.74625,445.1144061,326.7115807,92.99689852,47.96578634,-81.89958933,0.124603409,0,-0.002708209,-1.02E-06,46560.1758,9.346944763,913.3034079
2.75625,448.3765799,327.6261365,91.42561515,47.96578634,-81.89958598,0.133418317,0,-0.002304451,4.96E-07,46538.69335,9.325740634,912.9389402
2.76625,451.6477912,328.5249776,89.85407357,47.96578634,-81.89958262,0.140629239,0,-0.001870528,2.59E-07,46517.2109,9.30447776,912.5734628
2.77625,454.9278839,329.4081007,88.28230625,47.96578634,-81.89957925,0.146154598,0,-0.001414605,-7.82E-07,46495.72845,9.283157158,912.2069931
2.78625,458.2167015,330.275503,86.71034508,47.96578634,-81.89957588,0.149945444,0,-0.000940248,-6.30E-07,46474.246,9.261779843,911.8395487
2.79625,461.5140877,331.1271823,85.13822256,47.96578634,-81.89957249,0.151965011,0,-0.000450099,-1.38E-06,46452.76355,9.240346833,911.4711469
2.80625,464.8198857,331.9631366,83.56597238,47.96578634,-81.89956909,0.152191482,0,4.60E-05,-2.01E-06,46431.2811,9.218859146,911.1018052
2.81625,468.133939,332.7833646,81.99362964,47.96578634,-81.89956569,0.15063612,0,0.000545282,-7.45E-07,46409.79865,9.1973178,910.7315413
2.82625,471.4560906,333.5878651,80.42123181,47.96578634,-81.89956227,0.147320644,0,0.001039933,-1.10E-06,46388.31619,9.175723814,910.3603726
2.83625,474.7861837,334.3766375,78.84881874,47.96578635,-81.89955885,0.142292537,0,0.001523344,-1.96E-06,46366.83374,9.154078209,909.9883166
2.84625,478.1240613,335.1496813,77.27643292,47.96578635,-81.89955542,0.135620954,0,0.001991813,1.13E-07,46345.35129,9.132382005,909.6153909
2.85625,481.4695662,335.9069965,75.70411961,47.96578635,-81.89955198,0.127388756,0,0.002438081,8.75E-07,46323.86884,9.110636223,909.241613
2.86625,484.8225412,336.6485831,74.13192626,47.96578635,-81.89954854,0.117705813,0,0.002858341,1.31E-06,46302.38639,9.088841885,908.8670005
2.87625,488.1828292,337.3744415,72.55990252,47.96578635,-81.89954508,0.10669012,0,0.003244525,1.88E-06,46280.90394,9.067000013,908.491571
2.88625,491.5502727,338.0845725,70.98809904,47.96578635,-81.89954162,0.094484688,0,0.003594051,2.21E-06,46259.42149,9.045111631,908.115342
2.89625,494.9247144,338.7789768,69.41656672,47.96578635,-81.89953815,0.081250337,0,0.003902515,2.21E-06,46237.93904,9.02317776,907.7383312
2.90625,498.3059967,339.4576556,67.84535621,47.96578635,-81.89953467,0.067150065,0,0.004161829,3.85E-06,46216.45658,9.001199425,907.360556
2.91625,501.6939623,340.1206103,66.27451594,47.96578635,-81.89953119,0.052368473,0,0.004373653,0.000004844,46194.97413,8.979177648,906.9820342
2.92625,505.0884536,340.7678424,64.70409128,47.96578635,-81.89952769,0.037098053,0,0.004533059,7.91E-06,46173.49168,8.957113455,906.6027833
2.93625,508.4893132,341.3993539,63.13412396,47.96578635,-81.89952419,0.021529147,0,0.004637818,1.32E-05,46152.00923,8.935007867,906.2228209
2.94625,511.8963834,342.0151471,61.56464972,47.96578635,-81.89952068,0.005866496,0,0.004687908,5.43E-05,46130.52678,8.912861911,905.8421646
2.95625,515.3095069,342.6152246,59.99569957,47.96578635,-81.89951717,0.009696166,0,-0.00467809,3.43E-05,46109.04433,8.890676608,905.460832
2.96625,518.7285262,343.1995892,58.42729814,47.96578635,-81.89951364,0.024942347,0,-0.004614889,1.49E-05,46087.56188,8.868452983,905.0788407
2.97625,522.1532838,343.7682443,56.85946212,47.96578635,-81.89951011,0.039682964,0,-0.00449305,9.17E-06,46066.07943,8.846192058,904.6962083
2.98625,525.5836224,344.3211936,55.29219885,47.96578635,-81.89950657,0.053727539,0,-0.004317333,0.000007785,46044.59697,8.823894857,904.3129523
2.99625,529.0193848,344.8584414,53.72550661,47.96578635,-81.89950302,0.066892044,0,-0.004091906,6.67E-06,46023.11452,8.801562402,903.9290904
3.00625,532.4604137,345.3799924,52.15937643,47.96578635,-81.89949947,0.079012664,0,-0.003816369,4.35E-06,46001.63207,8.779195714,903.54464
3.01625,535.906557,345.8868389,50.6881,47.96578635,-81.89949591,0.089927706,0,-0.003495084,6.04E-06,45984.28259,8.756795782,903.1596183
3.02625,539.3576944,346.3843337,49.75520824,47.96578635,-81.89949234,0.099496985,0,-0.003135685,0.00000351,45970.67247,8.73436339,902.7740386
3.03625,542.8137359,346.8732922,48.90442818,47.96578636,-81.89948876,0.107606364,0,-0.002739403,0.000005304,45957.06235,8.71189912,902.387911
3.04625,546.2745962,347.3537203,48.05396082,47.96578636,-81.89948517,0.11414948,0,-0.002312156,3.43E-06,45943.45223,8.689403528,902.0012449
3.05625,549.7401898,347.8256239,47.20376557,47.96578636,-81.89948158,0.119047203,0,-0.001861592,3.52E-06,45929.84211,8.666877169,901.6140501
3.06625,553.2104316,348.2890093,46.35380692,47.96578636,-81.89947798,0.122244865,0,-0.001394292,4.53E-06,45916.23199,8.644320598,901.2263359
3.07625,556.6852364,348.7438829,45.50405612,47.96578636,-81.89947438,0.123710495,0,-0.000914123,4.73E-06,45902.62186,8.621734366,900.838112
3.08625,560.1645194,349.1902515,44.65449337,47.96578636,-81.89947076,0.123436697,0,-0.000430965,6.12E-06,45889.01174,8.599119026,900.4493877
3.09625,563.6481958,349.6281219,43.80510995,47.96578636,-81.89946714,0.121442782,0,4.88E-05,4.78E-06,45875.40162,8.57647513,900.0601725
3.10625,567.1361811,350.0575007,42.95590817,47.96578636,-81.89946351,0.117769547,0,0.000521452,4.74E-06,45861.7915,8.553803225,899.670476
3.11625,570.6283908,350.478395,42.10690139,47.96578636,-81.89945988,0.112476222,0,0.000977482,5.38E-06,45848.18138,8.531103862,899.2803074
3.12625,574.1247406,350.8908116,41.25811708,47.96578636,-81.89945624,0.105652859,0,0.00141013,0.000006179,45834.57125,8.508377588,898.8896763
3.13625,577.6251465,351.2947567,40.40944011,47.96578636,-81.89945259,0.097404848,0,0.001817157,6.13E-06,45820.96113,8.48562495,898.5104328
3.14625,581.1295245,351.6902352,39.56098032,47.96578636,-81.89944894,0.087857388,0,0.002187289,5.88E-06,45807.35101,8.462846493,898.1376675
3.15625,584.6377907,352.0772536,38.71288538,47.96578636,-81.89944527,0.077162733,0,0.002518476,4.33E-06,45793.74089,8.440042763,897.7644885
3.16625,588.1498613,352.4558184,37.86521996,47.96578636,-81.89944161,0.065484217,0,0.002808692,6.94E-06,45780.13077,8.417214303,897.3909049
3.17625,591.6656529,352.8259357,37.01805016,47.96578636,-81.89943793,0.052984955,0,0.003049326,7.05E-06,45766.52065,8.394361658,897.0169254
3.18625,595.1850819,353.1876347,36.18504878,47.96578636,-81.89943426,0.039861984,0,0.003236607,8.86E-06,45752.91052,8.371485369,896.6425591
3.19625,598.708063,353.5404974,35.30219379,47.96578636,-81.89943057,0.026306489,0,0.003372551,1.13E-05,45740.9483,8.34858599,896.2678148
3.20625,602.2344816,353.8790135,33.86462302,47.96578636,-81.89942688,0.012517157,0,0.003451131,2.11E-05,45731.2156,8.32566427,895.892705
3.21625,605.7641892,354.2019512,32.30461785,47.96578637,-81.89942319,0.001296465,0,-0.00346838,0.000196288,45721.48289,8.30272117,895.5172452
3.22625,609.2970315,354.5093132,30.74501127,47.96578637,-81.89941949,0.014930637,0,-0.003439857,1.52E-05,45711.75019,8.279757696,895.1414521
3.23625,612.8328538,354.8011018,29.18584185,47.96578637,-81.89941579,0.02819014,0,-0.003350229,8.85E-06,45702.01748,8.25677485,894.765342
3.24625,616.3715017,355.0773196,27.62714205,47.96578637,-81.89941208,0.040884429,0,-0.003205308,5.66E-06,45692.28478,8.233773639,894.3889312
3.25625,619.9128208,355.3379689,26.06893639,47.96578637,-81.89940837,0.052827735,0,-0.003009603,3.01E-06,45682.55207,8.210755065,894.0122364
3.26625,623.4566565,355.5830523,24.51123927,47.96578637,-81.89940466,0.063849644,0,-0.002764334,4.39E-06,45672.81937,8.187720133,893.6352739
3.27625,627.0028543,355.8125724,22.9540549,47.96578637,-81.89940094,0.073799153,0,-0.002475252,3.30E-06,45663.08666,8.164669847,893.2580601
3.28625,630.5512596,356.0265318,21.39737963,47.96578637,-81.89939722,0.082531269,0,-0.002146499,2.95E-06,45653.35395,8.141605213,892.8806115
3.29625,634.1017178,356.2249333,19.84120134,47.96578637,-81.8993935,0.089925672,0,-0.001785168,1.08E-06,45643.62125,8.118527234,892.5029445
3.30625,637.6540744,356.4077797,18.28549615,47.96578637,-81.89938978,0.095896474,0,-0.001392352,1.53E-06,45633.88854,8.095436916,892.1250756
3.31625,641.2081745,356.5750738,16.73025067,47.96578637,-81.89938605,0.100354305,0,-0.000976978,1.78E-06,45624.15584,8.072335265,891.7470212
3.32625,644.7638635,356.7268187,15.17544697,47.96578637,-81.89938232,0.103248991,0,-0.00054678,5.38E-07,45614.42313,8.049223287,891.3687978
3.33625,648.3209868,356.863062,13.62518546,47.96578637,-81.89937859,0.10455478,0,-0.000103717,0.00000052,45605.50556,8.026101986,890.9904218
3.34625,651.8793958,356.9850026,12.19473153,47.96578637,-81.89937486,0.104260353,0,0.000339046,-2.23E-07,45599.3957,8.002972327,890.6119091
3.35625,655.4389508,357.0931771,10.81869283,47.96578637,-81.89937113,0.102389233,0,0.000780049,-1.17E-06,45593.28583,7.97983522,890.2332745
3.36625,658.9995144,357.1875906,9.443397938,47.96578637,-81.89936739,0.09898565,0,0.001208885,-5.44E-08,45587.17596,7.956691556,889.8545326
3.37625,662.5609494,357.268248,8.069025571,47.96578638,-81.89936365,0.094111653,0,0.001618663,-0.000000501,45581.06609,7.933542229,889.475698
3.38625,666.1231184,357.335154,6.69593082,47.96578638,-81.89935992,0.087862018,0,0.002008606,-1.35E-06,45574.95623,7.91038813,889.0967853
3.39625,669.6858841,357.3883134,5.324863603,47.96578638,-81.89935618,0.080341812,0,0.002366484,3.32E-07,45568.84636,7.887230154,888.7178092
3.40625,673.249109,357.427731,3.957624476,47.96578638,-81.89935244,0.071680175,0,0.002690056,1.87E-07,45562.73649,7.864069192,888.3387842
3.41625,676.8126558,357.4534113,2.599785986,47.96578638,-81.8993487,0.062017093,0,0.002977842,7.98E-07,45556.62662,7.840906137,887.9597249
3.42625,680.3763867,357.4652467,1.269867459,47.96578638,-81.89934496,0.051509901,0,0.00321915,1.43E-06,45551.42687,7.817741887,887.5806461
3.43625,683.9401554,357.4617146,0.627489197,47.96578638,-81.89934122,0.040329292,0,0.003415014,2.63E-06,45548.11736,7.79457739,887.2015633
3.44625,687.5038058,357.442338,2.022279735,47.96578638,-81.89933748,0.028654857,0,0.003564004,3.58E-06,45544.80785,7.771413662,886.822493
3.45625,691.0671796,357.4071241,3.579073021,47.96578638,-81.89933374,0.016659723,0,0.003660153,5.21E-06,45541.49833,7.748251733,886.4434522
3.46625,694.6301183,357.35608,5.152282465,47.96578638,-81.89933,0.004536523,0,0.003703289,2.26E-05,45538.18882,7.725092631,886.0644577
