raw_nmea
"$GPRMC,180034,A,4342.0065,N,07924.9777,W,0.97,114.0,120825,,A*72"
"$GPGGA,180034,4342.0065,N,07924.9777,W,0,7,1.7,0.0,M,,,*15"
"$GPRMC,180035,A,4342.0065,N,07924.9773,W,0.97,95.6,120825,,A*49"
"$GPGGA,180035,4342.0065,N,07924.9773,W,0,3,1.0,0.0,M,,,*13"
"$GPRMC,180036,A,4342.0063,N,07924.9770,W,0.97,115.7,120825,,A*77"
"$GPGGA,180036,4342.0063,N,07924.9770,W,0,7,1.4,0.0,M,,,*15"
"$GPRMC,180037,A,4342.0063,N,07924.9773,W,0.97,250.1,120825,,A*71"
"$GPGGA,180037,4342.0063,N,07924.9773,W,0,3,1.9,0.0,M,,,*1E"
"$GPRMC,180038,A,4342.0061,N,07924.9770,W,0.97,127.6,120825,,A*7B"
"$GPGGA,180038,4342.0061,N,07924.9770,W,0,5,2.1,0.0,M,,,*1D"
"$GPRMC,180039,A,4342.0059,N,07924.9767,W,0.97,125.5,120825,,A*76"
"$GPGGA,180039,4342.0059,N,07924.9767,W,1,11,0.9,1.8,M,,,*26"
"$GPRMC,180040,A,4342.0058,N,07924.9764,W,0.97,128.1,120825,,A*73"
"$GPGGA,180040,4342.0058,N,07924.9764,W,1,11,2.5,5.4,M,,,*2C"
"$GPRMC,180041,A,4342.0056,N,07924.9761,W,0.97,128.9,120825,,A*71"
"$GPGGA,180041,4342.0056,N,07924.9761,W,1,12,2.0,11.0,M,,,*11"
"$GPRMC,180042,A,4342.0054,N,07924.9759,W,0.97,133.6,120825,,A*7E"
"$GPGGA,180042,4342.0054,N,07924.9759,W,1,10,1.8,18.5,M,,,*1E"
"$GPRMC,180043,A,4342.0052,N,07924.9756,W,1.02,131.4,120825,,A*7B"
"$GPGGA,180043,4342.0052,N,07924.9756,W,1,7,2.2,27.9,M,,,*29"
"$GPRMC,180044,A,4342.0050,N,07924.9752,W,1.24,134.2,120825,,A*7D"
"$GPGGA,180044,4342.0050,N,07924.9752,W,1,7,1.5,39.4,M,,,*2E"
"$GPRMC,180045,A,4342.0047,N,07924.9748,W,1.46,132.5,120825,,A*74"
"$GPGGA,180045,4342.0047,N,07924.9748,W,1,12,2.2,52.9,M,,,*12"
"$GPRMC,180046,A,4342.0044,N,07924.9743,W,1.69,134.0,120825,,A*71"
"$GPGGA,180046,4342.0044,N,07924.9743,W,1,7,2.2,68.6,M,,,*2B"
"$GPRMC,180047,A,4342.0040,N,07924.9738,W,1.92,137.3,120825,,A*7C"
"$GPGGA,180047,4342.0040,N,07924.9738,W,1,8,2.0,86.4,M,,,*2D"
"$GPRMC,180048,A,4342.0036,N,07924.9733,W,2.16,135.9,120825,,A*7E"
"$GPGGA,180048,4342.0036,N,07924.9733,W,1,8,1.3,106.4,M,,,*11"
"$GPRMC,180049,A,4342.0031,N,07924.9726,W,2.41,134.9,120825,,A*7F"
"$GPGGA,180049,4342.0031,N,07924.9726,W,1,9,2.2,128.7,M,,,*1F"
"$GPRMC,180050,A,4342.0026,N,07924.9718,W,2.65,131.7,120825,,A*71"
"$GPGGA,180050,4342.0026,N,07924.9718,W,1,8,1.8,153.3,M,,,*1C"
"$GPRMC,180051,A,4342.0020,N,07924.9711,W,2.91,136.6,120825,,A*72"
"$GPGGA,180051,4342.0020,N,07924.9711,W,1,9,0.8,180.2,M,,,*1D"
"$GPRMC,180052,A,4342.0014,N,07924.9702,W,3.16,132.9,120825,,A*71"
"$GPGGA,180052,4342.0014,N,07924.9702,W,1,10,1.8,209.5,M,,,*27"
"$GPRMC,180053,A,4342.0007,N,07924.9693,W,3.43,136.1,120825,,A*77"
"$GPGGA,180053,4342.0007,N,07924.9693,W,1,7,2.0,241.2,M,,,*1B"
"$GPRMC,180054,A,4342.0000,N,07924.9682,W,3.69,132.2,120825,,A*78"
"$GPGGA,180054,4342.0000,N,07924.9682,W,1,6,1.1,275.4,M,,,*19"
"$GPRMC,180055,A,4341.9993,N,07924.9671,W,3.97,130.4,120825,,A*79"
"$GPGGA,180055,4341.9993,N,07924.9671,W,1,10,1.2,312.1,M,,,*2C"
"$GPRMC,180056,A,4341.9986,N,07924.9659,W,4.24,131.6,120825,,A*78"
"$GPGGA,180056,4341.9986,N,07924.9659,W,1,6,0.8,351.4,M,,,*1F"
"$GPRMC,180057,A,4341.9978,N,07924.9645,W,4.52,128.5,120825,,A*7F"
"$GPGGA,180057,4341.9978,N,07924.9645,W,1,9,1.7,393.3,M,,,*1A"
"$GPRMC,180058,A,4341.9969,N,07924.9631,W,4.81,130.3,120825,,A*72"
"$GPGGA,180058,4341.9969,N,07924.9631,W,1,12,2.1,437.9,M,,,*2A"
"$GPRMC,180059,A,4341.9960,N,07924.9616,W,5.10,129.7,120825,,A*7A"
"$GPGGA,180059,4341.9960,N,07924.9616,W,1,7,0.8,485.1,M,,,*19"
"$GPRMC,180100,A,4341.9951,N,07924.9600,W,5.40,129.1,120825,,A*71"
"$GPGGA,180100,4341.9951,N,07924.9600,W,1,6,2.4,535.1,M,,,*14"
"$GPRMC,180101,A,4341.9940,N,07924.9584,W,5.70,133.5,120825,,A*73"
"$GPGGA,180101,4341.9940,N,07924.9584,W,1,12,1.2,587.9,M,,,*2B"
"$GPRMC,180102,A,4341.9928,N,07924.9568,W,6.01,135.2,120825,,A*78"
"$GPGGA,180102,4341.9928,N,07924.9568,W,1,8,2.4,643.5,M,,,*1D"
"$GPRMC,180103,A,4341.9915,N,07924.9551,W,6.32,136.7,120825,,A*7B"
"$GPGGA,180103,4341.9915,N,07924.9551,W,1,7,2.4,702.0,M,,,*16"
"$GPRMC,180104,A,4341.9901,N,07924.9535,W,6.63,140.2,120825,,A*7B"
"$GPGGA,180104,4341.9901,N,07924.9535,W,1,11,2.3,763.4,M,,,*25"
"$GPRMC,180105,A,4341.9887,N,07924.9516,W,6.95,135.9,120825,,A*74"
"$GPGGA,180105,4341.9887,N,07924.9516,W,1,11,0.8,827.8,M,,,*20"
"$GPRMC,180106,A,4341.9873,N,07924.9496,W,7.28,132.8,120825,,A*74"
"$GPGGA,180106,4341.9873,N,07924.9496,W,1,12,2.2,895.2,M,,,*29"
"$GPRMC,180107,A,4341.9860,N,07924.9473,W,7.61,129.4,120825,,A*77"
"$GPGGA,180107,4341.9860,N,07924.9473,W,1,6,1.8,965.7,M,,,*16"
"$GPRMC,180108,A,4341.9846,N,07924.9450,W,7.95,130.6,120825,,A*7C"
"$GPGGA,180108,4341.9846,N,07924.9450,W,1,7,1.0,1039.3,M,,,*20"
"$GPRMC,180109,A,4341.9831,N,07924.9426,W,8.29,130.7,120825,,A*75"
"$GPGGA,180109,4341.9831,N,07924.9426,W,1,10,0.9,1116.0,M,,,*11"
"$GPRMC,180110,A,4341.9814,N,07924.9402,W,8.63,133.3,120825,,A*75"
"$GPGGA,180110,4341.9814,N,07924.9402,W,1,9,2.3,1195.9,M,,,*2A"
"$GPRMC,180111,A,4341.9796,N,07924.9379,W,8.98,137.4,120825,,A*7D"
"$GPGGA,180111,4341.9796,N,07924.9379,W,1,10,2.0,1279.1,M,,,*17"
"$GPRMC,180112,A,4341.9776,N,07924.9355,W,9.34,139.1,120825,,A*72"
"$GPGGA,180112,4341.9776,N,07924.9355,W,1,11,1.8,1365.5,M,,,*16"
"$GPRMC,180113,A,4341.9756,N,07924.9332,W,9.69,140.8,120825,,A*7F"
"$GPGGA,180113,4341.9756,N,07924.9332,W,1,8,1.4,1455.3,M,,,*22"
"$GPRMC,180114,A,4341.9734,N,07924.9308,W,10.06,142.2,120825,,A*4C"
"$GPGGA,180114,4341.9734,N,07924.9308,W,1,9,2.1,1548.5,M,,,*24"
"$GPRMC,180115,A,4341.9712,N,07924.9282,W,10.43,139.8,120825,,A*4D"
"$GPGGA,180115,4341.9712,N,07924.9282,W,1,10,2.0,1645.0,M,,,*10"
"$GPRMC,180116,A,4341.9689,N,07924.9255,W,10.80,138.4,120825,,A*45"
"$GPGGA,180116,4341.9689,N,07924.9255,W,1,7,1.6,1745.1,M,,,*29"
"$GPRMC,180117,A,4341.9668,N,07924.9224,W,11.18,133.5,120825,,A*47"
"$GPGGA,180117,4341.9668,N,07924.9224,W,1,6,1.8,1848.6,M,,,*2B"
"$GPRMC,180118,A,4341.9644,N,07924.9193,W,11.57,136.9,120825,,A*4B"
"$GPGGA,180118,4341.9644,N,07924.9193,W,1,6,1.1,1955.7,M,,,*20"
"$GPRMC,180119,A,4341.9620,N,07924.9165,W,11.54,139.8,120825,,A*4C"
"$GPGGA,180119,4341.9620,N,07924.9165,W,1,10,1.7,2062.5,M,,,*17"
"$GPRMC,180120,A,4341.9596,N,07924.9136,W,11.51,139.5,120825,,A*46"
"$GPGGA,180120,4341.9596,N,07924.9136,W,1,7,1.4,2169.1,M,,,*2E"
"$GPRMC,180121,A,4341.9570,N,07924.9109,W,11.48,142.8,120825,,A*4A"
"$GPGGA,180121,4341.9570,N,07924.9109,W,1,6,1.6,2275.4,M,,,*23"
"$GPRMC,180122,A,4341.9546,N,07924.9081,W,11.45,139.4,120825,,A*40"
"$GPGGA,180122,4341.9546,N,07924.9081,W,1,9,1.1,2381.4,M,,,*26"
"$GPRMC,180123,A,4341.9523,N,07924.9051,W,11.42,136.6,120825,,A*45"
"$GPGGA,180123,4341.9523,N,07924.9051,W,1,9,1.7,2487.2,M,,,*28"
"$GPRMC,180124,A,4341.9501,N,07924.9019,W,11.39,134.2,120825,,A*44"
"$GPGGA,180124,4341.9501,N,07924.9019,W,1,6,2.3,2592.6,M,,,*2A"
"$GPRMC,180125,A,4341.9479,N,07924.8989,W,11.36,135.5,120825,,A*43"
"$GPGGA,180125,4341.9479,N,07924.8989,W,1,8,1.5,2697.8,M,,,*27"
"$GPRMC,180126,A,4341.9456,N,07924.8959,W,11.33,136.7,120825,,A*44"
"$GPGGA,180126,4341.9456,N,07924.8959,W,1,12,0.8,2802.8,M,,,*11"
"$GPRMC,180127,A,4341.9432,N,07924.8930,W,11.30,138.2,120825,,A*40"
"$GPGGA,180127,4341.9432,N,07924.8930,W,1,9,2.0,2907.5,M,,,*24"
"$GPRMC,180128,A,4341.9409,N,07924.8902,W,11.27,139.3,120825,,A*40"
"$GPGGA,180128,4341.9409,N,07924.8902,W,1,12,1.6,3011.9,M,,,*1E"
"$GPRMC,180129,A,4341.9387,N,07924.8872,W,11.25,135.6,120825,,A*4D"
"$GPGGA,180129,4341.9387,N,07924.8872,W,1,11,1.0,3116.0,M,,,*12"
"$GPRMC,180130,A,4341.9363,N,07924.8843,W,11.22,137.8,120825,,A*46"
"$GPGGA,180130,4341.9363,N,07924.8843,W,1,10,1.2,3219.8,M,,,*15"
"$GPRMC,180131,A,4341.9341,N,07924.8813,W,11.19,136.5,120825,,A*46"
"$GPGGA,180131,4341.9341,N,07924.8813,W,1,11,2.4,3323.4,M,,,*11"
"$GPRMC,180132,A,4341.9318,N,07924.8784,W,11.16,136.6,120825,,A*44"
"$GPGGA,180132,4341.9318,N,07924.8784,W,1,9,1.5,3426.8,M,,,*2A"
"$GPRMC,180133,A,4341.9297,N,07924.8753,W,11.13,133.6,120825,,A*49"
"$GPGGA,180133,4341.9297,N,07924.8753,W,1,7,1.6,3529.8,M,,,*24"
"$GPRMC,180134,A,4341.9277,N,07924.8721,W,11.10,130.4,120825,,A*47"
"$GPGGA,180134,4341.9277,N,07924.8721,W,1,9,1.9,3632.6,M,,,*2E"
"$GPRMC,180135,A,4341.9259,N,07924.8687,W,11.07,127.4,120825,,A*47"
"$GPGGA,180135,4341.9259,N,07924.8687,W,1,6,1.8,3735.1,M,,,*21"
"$GPRMC,180136,A,4341.9238,N,07924.8655,W,11.04,131.3,120825,,A*4F"
"$GPGGA,180136,4341.9238,N,07924.8655,W,1,11,2.3,3837.3,M,,,*1B"
"$GPRMC,180137,A,4341.9218,N,07924.8624,W,11.01,132.7,120825,,A*48"
"$GPGGA,180137,4341.9218,N,07924.8624,W,1,10,0.9,3939.3,M,,,*18"
"$GPRMC,180138,A,4341.9195,N,07924.8595,W,10.98,136.8,120825,,A*42"
"$GPGGA,180138,4341.9195,N,07924.8595,W,1,8,1.3,4041.0,M,,,*28"
"$GPRMC,180139,A,4341.9172,N,07924.8569,W,10.95,141.3,120825,,A*4F"
"$GPGGA,180139,4341.9172,N,07924.8569,W,1,6,1.4,4142.4,M,,,*2C"
"$GPRMC,180140,A,4341.9150,N,07924.8540,W,10.92,137.2,120825,,A*4D"
"$GPGGA,180140,4341.9150,N,07924.8540,W,1,12,1.7,4243.6,M,,,*1F"
"$GPRMC,180141,A,4341.9127,N,07924.8513,W,10.90,138.4,120825,,A*41"
"$GPGGA,180141,4341.9127,N,07924.8513,W,1,12,1.9,4344.5,M,,,*13"
"$GPRMC,180142,A,4341.9104,N,07924.8486,W,10.87,140.9,120825,,A*4A"
"$GPGGA,180142,4341.9104,N,07924.8486,W,1,12,1.3,4445.1,M,,,*14"
"$GPRMC,180143,A,4341.9080,N,07924.8461,W,10.84,141.9,120825,,A*4D"
"$GPGGA,180143,4341.9080,N,07924.8461,W,1,11,0.9,4545.5,M,,,*1C"
"$GPRMC,180144,A,4341.9056,N,07924.8436,W,10.81,142.4,120825,,A*48"
"$GPGGA,180144,4341.9056,N,07924.8436,W,1,10,1.6,4645.5,M,,,*1E"
"$GPRMC,180145,A,4341.9034,N,07924.8408,W,10.78,138.7,120825,,A*48"
"$GPGGA,180145,4341.9034,N,07924.8408,W,1,12,1.2,4745.3,M,,,*17"
"$GPRMC,180146,A,4341.9011,N,07924.8382,W,10.75,139.9,120825,,A*4B"
"$GPGGA,180146,4341.9011,N,07924.8382,W,1,10,1.5,4844.9,M,,,*17"
"$GPRMC,180147,A,4341.8987,N,07924.8357,W,10.72,142.2,120825,,A*45"
"$GPGGA,180147,4341.8987,N,07924.8357,W,1,8,2.3,4944.2,M,,,*2F"
"$GPRMC,180148,A,4341.8963,N,07924.8334,W,10.69,146.4,120825,,A*4D"
"$GPGGA,180148,4341.8963,N,07924.8334,W,1,9,2.3,5043.2,M,,,*21"
"$GPRMC,180149,A,4341.8938,N,07924.8311,W,10.66,146.0,120825,,A*4E"
"$GPGGA,180149,4341.8938,N,07924.8311,W,1,12,1.8,5141.9,M,,,*13"
"$GPRMC,180150,A,4341.8913,N,07924.8290,W,10.63,148.4,120825,,A*48"
"$GPGGA,180150,4341.8913,N,07924.8290,W,1,10,1.5,5240.3,M,,,*1D"
"$GPRMC,180151,A,4341.8889,N,07924.8267,W,10.60,146.8,120825,,A*42"
"$GPGGA,180151,4341.8889,N,07924.8267,W,1,11,2.0,5338.5,M,,,*19"
"$GPRMC,180152,A,4341.8865,N,07924.8243,W,10.57,143.7,120825,,A*4B"
"$GPGGA,180152,4341.8865,N,07924.8243,W,1,6,2.2,5436.5,M,,,*23"
"$GPRMC,180153,A,4341.8842,N,07924.8217,W,10.55,140.0,120825,,A*48"
"$GPGGA,180153,4341.8842,N,07924.8217,W,1,9,1.4,5534.1,M,,,*2B"
"$GPRMC,180154,A,4341.8821,N,07924.8190,W,10.45,136.8,120825,,A*4E"
"$GPGGA,180154,4341.8821,N,07924.8190,W,1,8,1.2,5630.9,M,,,*2D"
"$GPRMC,180155,A,4341.8799,N,07924.8165,W,10.35,140.9,120825,,A*4E"
"$GPGGA,180155,4341.8799,N,07924.8165,W,1,7,1.3,5726.7,M,,,*2C"
"$GPRMC,180156,A,4341.8777,N,07924.8140,W,10.25,141.6,120825,,A*45"
"$GPGGA,180156,4341.8777,N,07924.8140,W,1,6,1.6,5821.7,M,,,*24"
"$GPRMC,180157,A,4341.8753,N,07924.8119,W,10.16,145.9,120825,,A*45"
"$GPGGA,180157,4341.8753,N,07924.8119,W,1,11,1.5,5915.7,M,,,*1C"
"$GPRMC,180158,A,4341.8730,N,07924.8097,W,10.06,146.6,120825,,A*45"
"$GPGGA,180158,4341.8730,N,07924.8097,W,1,7,2.4,6008.9,M,,,*2C"
"$GPRMC,180159,A,4341.8708,N,07924.8075,W,9.96,144.0,120825,,A*76"
"$GPGGA,180159,4341.8708,N,07924.8075,W,1,9,1.3,6101.1,M,,,*20"
"$GPRMC,180200,A,4341.8687,N,07924.8050,W,9.87,139.3,120825,,A*71"
"$GPGGA,180200,4341.8687,N,07924.8050,W,1,7,2.2,6192.5,M,,,*2C"
"$GPRMC,180201,A,4341.8666,N,07924.8028,W,9.77,143.0,120825,,A*71"
"$GPGGA,180201,4341.8666,N,07924.8028,W,1,10,1.9,6282.9,M,,,*1D"
"$GPRMC,180202,A,4341.8645,N,07924.8004,W,9.67,141.2,120825,,A*7C"
"$GPGGA,180202,4341.8645,N,07924.8004,W,1,10,2.1,6372.5,M,,,*18"
"$GPRMC,180203,A,4341.8625,N,07924.7980,W,9.57,137.4,120825,,A*75"
"$GPGGA,180203,4341.8625,N,07924.7980,W,1,11,1.0,6461.1,M,,,*17"
"$GPRMC,180204,A,4341.8604,N,07924.7957,W,9.48,142.3,120825,,A*70"
"$GPGGA,180204,4341.8604,N,07924.7957,W,1,6,1.1,6548.9,M,,,*2C"
"$GPRMC,180205,A,4341.8584,N,07924.7934,W,9.38,139.8,120825,,A*7F"
"$GPGGA,180205,4341.8584,N,07924.7934,W,1,11,2.3,6635.7,M,,,*13"
"$GPRMC,180206,A,4341.8564,N,07924.7913,W,9.28,143.2,120825,,A*71"
"$GPGGA,180206,4341.8564,N,07924.7913,W,1,6,1.8,6721.7,M,,,*21"
"$GPRMC,180207,A,4341.8545,N,07924.7889,W,9.18,138.4,120825,,A*78"
"$GPGGA,180207,4341.8545,N,07924.7889,W,1,10,1.6,6806.7,M,,,*12"
"$GPRMC,180208,A,4341.8526,N,07924.7867,W,9.09,139.7,120825,,A*70"
"$GPGGA,180208,4341.8526,N,07924.7867,W,1,11,1.4,6890.9,M,,,*1A"
"$GPRMC,180209,A,4341.8507,N,07924.7843,W,8.99,136.6,120825,,A*72"
"$GPGGA,180209,4341.8507,N,07924.7843,W,1,12,1.5,6974.1,M,,,*1F"
"$GPRMC,180210,A,4341.8488,N,07924.7822,W,8.89,140.9,120825,,A*74"
"$GPGGA,180210,4341.8488,N,07924.7822,W,1,7,1.0,7056.5,M,,,*2B"
"$GPRMC,180211,A,4341.8469,N,07924.7800,W,8.80,140.6,120825,,A*7C"
"$GPGGA,180211,4341.8469,N,07924.7800,W,1,12,1.0,7137.9,M,,,*1B"
"$GPRMC,180212,A,4341.8452,N,07924.7777,W,8.70,136.4,120825,,A*74"
"$GPGGA,180212,4341.8452,N,07924.7777,W,1,9,2.5,7218.5,M,,,*21"
"$GPRMC,180213,A,4341.8433,N,07924.7757,W,8.60,140.9,120825,,A*7D"
"$GPGGA,180213,4341.8433,N,07924.7757,W,1,6,1.9,7298.1,M,,,*29"
"$GPRMC,180214,A,4341.8415,N,07924.7737,W,8.50,142.9,120825,,A*79"
"$GPGGA,180214,4341.8415,N,07924.7737,W,1,7,2.1,7296.1,M,,,*28"
"$GPRMC,180215,A,4341.8396,N,07924.7718,W,8.41,144.1,120825,,A*77"
"$GPGGA,180215,4341.8396,N,07924.7718,W,1,10,1.0,7294.1,M,,,*1E"
"$GPRMC,180216,A,4341.8377,N,07924.7699,W,8.31,143.4,120825,,A*76"
"$GPGGA,180216,4341.8377,N,07924.7699,W,1,11,2.4,7292.1,M,,,*1A"
"$GPRMC,180217,A,4341.8360,N,07924.7678,W,8.21,139.5,120825,,A*73"
"$GPGGA,180217,4341.8360,N,07924.7678,W,1,9,1.5,7290.1,M,,,*2B"
"$GPRMC,180218,A,4341.8344,N,07924.7656,W,8.12,134.8,120825,,A*76"
"$GPGGA,180218,4341.8344,N,07924.7656,W,1,10,1.0,7288.1,M,,,*1A"
"$GPRMC,180219,A,4341.8329,N,07924.7633,W,8.02,131.1,120825,,A*72"
"$GPGGA,180219,4341.8329,N,07924.7633,W,1,8,1.2,7286.1,M,,,*26"
"$GPRMC,180220,A,4341.8316,N,07924.7609,W,7.92,128.2,120825,,A*70"
"$GPGGA,180220,4341.8316,N,07924.7609,W,1,10,1.8,7284.1,M,,,*18"
"$GPRMC,180221,A,4341.8301,N,07924.7587,W,7.82,133.1,120825,,A*7A"
"$GPGGA,180221,4341.8301,N,07924.7587,W,1,6,2.2,7282.1,M,,,*22"
"$GPRMC,180222,A,4341.8286,N,07924.7566,W,7.73,133.2,120825,,A*75"
"$GPGGA,180222,4341.8286,N,07924.7566,W,1,7,1.0,7280.1,M,,,*22"
"$GPRMC,180223,A,4341.8272,N,07924.7545,W,7.63,134.2,120825,,A*78"
"$GPGGA,180223,4341.8272,N,07924.7545,W,1,8,1.8,7278.1,M,,,*29"
"$GPRMC,180224,A,4341.8256,N,07924.7526,W,7.53,139.1,120825,,A*71"
"$GPGGA,180224,4341.8256,N,07924.7526,W,1,12,1.3,7276.1,M,,,*13"
"$GPRMC,180225,A,4341.8240,N,07924.7508,W,7.44,142.3,120825,,A*73"
"$GPGGA,180225,4341.8240,N,07924.7508,W,1,11,2.5,7274.1,M,,,*1D"
"$GPRMC,180226,A,4341.8224,N,07924.7491,W,7.34,141.0,120825,,A*74"
"$GPGGA,180226,4341.8224,N,07924.7491,W,1,10,2.4,7272.1,M,,,*1B"
"$GPRMC,180227,A,4341.8209,N,07924.7472,W,7.24,137.4,120825,,A*73"
"$GPGGA,180227,4341.8209,N,07924.7472,W,1,7,2.2,7270.1,M,,,*2A"
"$GPRMC,180228,A,4341.8196,N,07924.7452,W,7.14,132.7,120825,,A*7E"
"$GPGGA,180228,4341.8196,N,07924.7452,W,1,8,1.6,7268.1,M,,,*23"
"$GPRMC,180229,A,4341.8181,N,07924.7433,W,7.05,136.2,120825,,A*7F"
"$GPGGA,180229,4341.8181,N,07924.7433,W,1,10,2.3,7266.1,M,,,*12"
"$GPRMC,180230,A,4341.8169,N,07924.7413,W,6.95,131.6,120825,,A*78"
"$GPGGA,180230,4341.8169,N,07924.7413,W,1,12,1.8,7264.1,M,,,*16"
"$GPRMC,180231,A,4341.8155,N,07924.7395,W,6.85,136.3,120825,,A*7C"
"$GPGGA,180231,4341.8155,N,07924.7395,W,1,8,0.9,7262.1,M,,,*2C"
"$GPRMC,180232,A,4341.8141,N,07924.7378,W,6.75,138.4,120825,,A*7F"
"$GPGGA,180232,4341.8141,N,07924.7378,W,1,10,0.9,7260.1,M,,,*12"
"$GPRMC,180233,A,4341.8128,N,07924.7360,W,6.66,134.4,120825,,A*76"
"$GPGGA,180233,4341.8128,N,07924.7360,W,1,10,1.4,7258.1,M,,,*12"
"$GPRMC,180234,A,4341.8108,N,07924.7335,W,9.72,139.0,120825,,A*70"
"$GPGGA,180234,4341.8108,N,07924.7335,W,1,6,2.2,7256.1,M,,,*2B"
"$GPRMC,180235,A,4341.8088,N,07924.7309,W,9.72,136.4,120825,,A*7C"
"$GPGGA,180235,4341.8088,N,07924.7309,W,1,12,2.4,7254.1,M,,,*1D"
"$GPRMC,180236,A,4341.8069,N,07924.7283,W,9.72,135.2,120825,,A*76"
"$GPGGA,180236,4341.8069,N,07924.7283,W,1,7,1.8,7252.1,M,,,*2F"
"$GPRMC,180237,A,4341.8050,N,07924.7257,W,9.72,135.4,120825,,A*72"
"$GPGGA,180237,4341.8050,N,07924.7257,W,1,9,2.4,7250.1,M,,,*2E"
"$GPRMC,180238,A,4341.8030,N,07924.7231,W,9.72,136.3,120825,,A*7F"
"$GPGGA,180238,4341.8030,N,07924.7231,W,1,8,1.2,7248.1,M,,,*2A"
"$GPRMC,180239,A,4341.8012,N,07924.7204,W,9.72,132.3,120825,,A*7C"
"$GPGGA,180239,4341.8012,N,07924.7204,W,1,11,0.8,7246.1,M,,,*10"
"$GPRMC,180240,A,4341.7994,N,07924.7177,W,9.72,133.7,120825,,A*78"
"$GPGGA,180240,4341.7994,N,07924.7177,W,1,12,2.5,7244.1,M,,,*1F"
"$GPRMC,180241,A,4341.7974,N,07924.7151,W,9.72,136.0,120825,,A*71"
"$GPGGA,180241,4341.7974,N,07924.7151,W,1,12,1.4,7242.1,M,,,*10"
"$GPRMC,180242,A,4341.7955,N,07924.7124,W,9.72,135.0,120825,,A*70"
"$GPGGA,180242,4341.7955,N,07924.7124,W,1,7,2.4,7240.1,M,,,*27"
"$GPRMC,180243,A,4341.7937,N,07924.7097,W,9.72,131.7,120825,,A*7F"
"$GPGGA,180243,4341.7937,N,07924.7097,W,1,10,1.8,7238.1,M,,,*1D"
"$GPRMC,180244,A,4341.7920,N,07924.7068,W,9.72,129.8,120825,,A*78"
"$GPGGA,180244,4341.7920,N,07924.7068,W,1,8,1.9,7236.1,M,,,*2A"
"$GPRMC,180245,A,4341.7903,N,07924.7039,W,9.72,129.0,120825,,A*74"
"$GPGGA,180245,4341.7903,N,07924.7039,W,1,9,2.2,7234.1,M,,,*25"
"$GPRMC,180246,A,4341.7887,N,07924.7009,W,9.72,125.8,120825,,A*7D"
"$GPGGA,180246,4341.7887,N,07924.7009,W,1,6,1.9,7232.1,M,,,*29"
"$GPRMC,180247,A,4341.7871,N,07924.6979,W,9.72,127.0,120825,,A*70"
"$GPGGA,180247,4341.7871,N,07924.6979,W,1,6,1.2,7230.1,M,,,*27"
"$GPRMC,180248,A,4341.7854,N,07924.6950,W,9.72,129.0,120825,,A*7D"
"$GPGGA,180248,4341.7854,N,07924.6950,W,1,11,1.1,7228.1,M,,,*18"
"$GPRMC,180249,A,4341.7835,N,07924.6923,W,9.72,133.7,120825,,A*73"
"$GPGGA,180249,4341.7835,N,07924.6923,W,1,12,1.7,7226.1,M,,,*11"
"$GPRMC,180250,A,4341.7816,N,07924.6897,W,9.72,135.7,120825,,A*72"
"$GPGGA,180250,4341.7816,N,07924.6897,W,1,11,2.0,7224.1,M,,,*13"
"$GPRMC,180251,A,4341.7797,N,07924.6871,W,9.72,135.4,120825,,A*7E"
"$GPGGA,180251,4341.7797,N,07924.6871,W,1,9,1.2,7222.1,M,,,*22"
"$GPRMC,180252,A,4341.7777,N,07924.6846,W,9.72,138.2,120825,,A*7C"
"$GPGGA,180252,4341.7777,N,07924.6846,W,1,10,1.1,7220.1,M,,,*12"
"$GPRMC,180253,A,4341.7756,N,07924.6823,W,9.72,140.9,120825,,A*79"
"$GPGGA,180253,4341.7756,N,07924.6823,W,1,12,0.8,7218.1,M,,,*12"
"$GPRMC,180254,A,4341.7734,N,07924.6800,W,9.72,143.3,120825,,A*72"
"$GPGGA,180254,4341.7734,N,07924.6800,W,1,11,1.0,7216.1,M,,,*14"
"$GPRMC,180255,A,4341.7712,N,07924.6781,W,9.72,148.0,120825,,A*79"
"$GPGGA,180255,4341.7712,N,07924.6781,W,1,11,1.0,7214.1,M,,,*15"
"$GPRMC,180256,A,4341.7689,N,07924.6761,W,9.72,148.7,120825,,A*70"
"$GPGGA,180256,4341.7689,N,07924.6761,W,1,9,2.3,7212.1,M,,,*24"
"$GPRMC,180257,A,4341.7665,N,07924.6742,W,9.72,149.4,120825,,A*70"
"$GPGGA,180257,4341.7665,N,07924.6742,W,1,10,2.4,7210.1,M,,,*1B"
"$GPRMC,180258,A,4341.7642,N,07924.6722,W,9.72,148.1,120825,,A*78"
"$GPGGA,180258,4341.7642,N,07924.6722,W,1,10,1.5,7208.1,M,,,*1C"
"$GPRMC,180259,A,4341.7619,N,07924.6704,W,9.72,150.3,120825,,A*78"
"$GPGGA,180259,4341.7619,N,07924.6704,W,1,10,1.5,7206.1,M,,,*19"
"$GPRMC,180300,A,4341.7596,N,07924.6685,W,9.72,149.1,120825,,A*73"
"$GPGGA,180300,4341.7596,N,07924.6685,W,1,11,2.1,7204.1,M,,,*1C"
"$GPRMC,180301,A,4341.7572,N,07924.6668,W,9.72,153.6,120825,,A*77"
"$GPGGA,180301,4341.7572,N,07924.6668,W,1,7,2.0,7202.1,M,,,*24"
"$GPRMC,180302,A,4341.7548,N,07924.6650,W,9.72,149.8,120825,,A*73"
"$GPGGA,180302,4341.7548,N,07924.6650,W,1,8,1.8,7200.1,M,,,*23"
"$GPRMC,180303,A,4341.7526,N,07924.6630,W,9.72,148.1,120825,,A*74"
"$GPGGA,180303,4341.7526,N,07924.6630,W,1,8,2.3,7198.1,M,,,*26"
"$GPRMC,180304,A,4341.7504,N,07924.6608,W,9.72,143.9,120825,,A*7B"
"$GPGGA,180304,4341.7504,N,07924.6608,W,1,11,2.2,7196.1,M,,,*1D"
"$GPRMC,180305,A,4341.7483,N,07924.6584,W,9.72,139.3,120825,,A*74"
"$GPGGA,180305,4341.7483,N,07924.6584,W,1,11,1.1,7194.1,M,,,*17"
"$GPRMC,180306,A,4341.7464,N,07924.6558,W,9.72,136.4,120825,,A*77"
"$GPGGA,180306,4341.7464,N,07924.6558,W,1,11,2.2,7192.1,M,,,*1A"
"$GPRMC,180307,A,4341.7445,N,07924.6531,W,9.72,134.0,120825,,A*7C"
"$GPGGA,180307,4341.7445,N,07924.6531,W,1,10,1.1,7190.1,M,,,*14"
"$GPRMC,180308,A,4341.7427,N,07924.6503,W,9.72,131.3,120825,,A*70"
"$GPGGA,180308,4341.7427,N,07924.6503,W,1,9,1.5,7188.1,M,,,*2B"
"$GPRMC,180309,A,4341.7411,N,07924.6474,W,9.72,127.6,120825,,A*77"
"$GPGGA,180309,4341.7411,N,07924.6474,W,1,7,1.7,7186.1,M,,,*2C"
"$GPRMC,180310,A,4341.7395,N,07924.6444,W,9.72,126.4,120825,,A*74"
"$GPGGA,180310,4341.7395,N,07924.6444,W,1,6,2.4,7184.1,M,,,*2F"
"$GPRMC,180311,A,4341.7378,N,07924.6415,W,9.72,129.2,120825,,A*7B"
"$GPGGA,180311,4341.7378,N,07924.6415,W,1,6,1.3,7182.1,M,,,*2B"
"$GPRMC,180312,A,4341.7362,N,07924.6385,W,9.72,127.2,120825,,A*73"
"$GPGGA,180312,4341.7362,N,07924.6385,W,1,11,1.9,7180.1,M,,,*13"
"$GPRMC,180313,A,4341.7347,N,07924.6354,W,9.72,123.8,120825,,A*77"
"$GPGGA,180313,4341.7347,N,07924.6354,W,1,10,1.1,7178.1,M,,,*17"
"$GPRMC,180314,A,4341.7331,N,07924.6323,W,9.72,124.4,120825,,A*7A"
"$GPGGA,180314,4341.7331,N,07924.6323,W,1,9,0.9,7176.1,M,,,*2E"
"$GPRMC,180315,A,4341.7318,N,07924.6291,W,9.72,120.9,120825,,A*71"
"$GPGGA,180315,4341.7318,N,07924.6291,W,1,8,2.5,7174.1,M,,,*21"
"$GPRMC,180316,A,4341.7303,N,07924.6260,W,9.72,123.4,120825,,A*78"
"$GPGGA,180316,4341.7303,N,07924.6260,W,1,12,0.7,7172.1,M,,,*1B"
"$GPRMC,180317,A,4341.7286,N,07924.6231,W,9.72,127.7,120825,,A*76"
"$GPGGA,180317,4341.7286,N,07924.6231,W,1,11,2.3,7170.1,M,,,*15"
"$GPRMC,180318,A,4341.7270,N,07924.6201,W,9.72,127.0,120825,,A*74"
"$GPGGA,180318,4341.7270,N,07924.6201,W,1,10,1.1,7168.1,M,,,*19"
"$GPRMC,180319,A,4341.7254,N,07924.6171,W,9.72,126.0,120825,,A*76"
"$GPGGA,180319,4341.7254,N,07924.6171,W,1,11,1.8,7166.1,M,,,*1C"
"$GPRMC,180320,A,4341.7240,N,07924.6139,W,9.72,122.2,120825,,A*73"
"$GPGGA,180320,4341.7240,N,07924.6139,W,1,9,1.1,7164.1,M,,,*2D"
"$GPRMC,180321,A,4341.7225,N,07924.6108,W,9.72,124.1,120825,,A*76"
"$GPGGA,180321,4341.7225,N,07924.6108,W,1,11,0.9,7162.1,M,,,*1B"
"$GPRMC,180322,A,4341.7209,N,07924.6078,W,9.72,125.6,120825,,A*7B"
"$GPGGA,180322,4341.7209,N,07924.6078,W,1,7,2.0,7160.1,M,,,*2E"
"$GPRMC,180323,A,4341.7192,N,07924.6049,W,9.72,127.8,120825,,A*75"
"$GPGGA,180323,4341.7192,N,07924.6049,W,1,6,1.8,7158.1,M,,,*2D"
"$GPRMC,180324,A,4341.7177,N,07924.6018,W,9.72,125.6,120825,,A*71"
"$GPGGA,180324,4341.7177,N,07924.6018,W,1,6,2.3,7156.1,M,,,*23"
"$GPRMC,180325,A,4341.7163,N,07924.5986,W,9.72,120.9,120825,,A*72"
"$GPGGA,180325,4341.7163,N,07924.5986,W,1,9,0.8,7154.1,M,,,*2E"
"$GPRMC,180326,A,4341.7150,N,07924.5954,W,9.72,119.5,120825,,A*78"
"$GPGGA,180326,4341.7150,N,07924.5954,W,1,6,1.5,7152.1,M,,,*27"
"$GPRMC,180327,A,4341.7138,N,07924.5920,W,9.72,115.6,120825,,A*7B"
"$GPGGA,180327,4341.7138,N,07924.5920,W,1,11,0.8,7150.1,M,,,*13"
"$GPRMC,180328,A,4341.7126,N,07924.5887,W,9.72,115.9,120825,,A*78"
"$GPGGA,180328,4341.7126,N,07924.5887,W,1,12,2.2,7148.1,M,,,*1D"
"$GPRMC,180329,A,4341.7114,N,07924.5854,W,9.72,117.7,120825,,A*7A"
"$GPGGA,180329,4341.7114,N,07924.5854,W,1,7,0.9,7146.1,M,,,*20"
"$GPRMC,180330,A,4341.7099,N,07924.5822,W,9.72,122.4,120825,,A*72"
"$GPGGA,180330,4341.7099,N,07924.5822,W,1,6,0.8,7144.1,M,,,*2F"
"$GPRMC,180331,A,4341.7086,N,07924.5790,W,9.72,119.8,120825,,A*7F"
"$GPGGA,180331,4341.7086,N,07924.5790,W,1,10,1.3,7142.1,M,,,*1D"
"$GPRMC,180332,A,4341.7075,N,07924.5756,W,9.72,115.0,120825,,A*7E"
"$GPGGA,180332,4341.7075,N,07924.5756,W,1,10,2.1,7140.1,M,,,*1B"
"$GPRMC,180333,A,4341.7062,N,07924.5723,W,9.72,118.4,120825,,A*72"
"$GPGGA,180333,4341.7062,N,07924.5723,W,1,10,1.6,7138.1,M,,,*15"
"$GPRMC,180334,A,4341.7047,N,07924.5692,W,9.72,122.8,120825,,A*7C"
"$GPGGA,180334,4341.7047,N,07924.5692,W,1,11,1.6,7136.1,M,,,*11"
"$GPRMC,180335,A,4341.7032,N,07924.5661,W,9.72,123.0,120825,,A*7A"
"$GPGGA,180335,4341.7032,N,07924.5661,W,1,12,1.4,7134.1,M,,,*1D"
"$GPRMC,180336,A,4341.7019,N,07924.5629,W,9.72,120.7,120825,,A*78"
"$GPGGA,180336,4341.7019,N,07924.5629,W,1,8,1.8,7132.1,M,,,*2A"
"$GPRMC,180337,A,4341.7006,N,07924.5596,W,9.72,117.8,120825,,A*7B"
"$GPGGA,180337,4341.7006,N,07924.5596,W,1,7,1.0,7130.1,M,,,*27"
"$GPRMC,180338,A,4341.6994,N,07924.5563,W,9.72,117.4,120825,,A*71"
"$GPGGA,180338,4341.6994,N,07924.5563,W,1,7,1.5,7128.1,M,,,*2D"
"$GPRMC,180339,A,4341.6981,N,07924.5530,W,9.72,118.6,120825,,A*7F"
"$GPGGA,180339,4341.6981,N,07924.5530,W,1,10,1.6,7126.1,M,,,*15"
"$GPRMC,180340,A,4341.6967,N,07924.5498,W,9.72,121.6,120825,,A*70"
"$GPGGA,180340,4341.6967,N,07924.5498,W,1,10,2.4,7124.1,M,,,*13"
"$GPRMC,180341,A,4341.6953,N,07924.5466,W,9.72,121.7,120825,,A*76"
"$GPGGA,180341,4341.6953,N,07924.5466,W,1,11,1.2,7122.1,M,,,*16"
"$GPRMC,180342,A,4341.6937,N,07924.5436,W,9.72,126.2,120825,,A*70"
"$GPGGA,180342,4341.6937,N,07924.5436,W,1,8,2.3,7120.1,M,,,*2A"
"$GPRMC,180343,A,4341.6919,N,07924.5408,W,9.72,131.2,120825,,A*76"
"$GPGGA,180343,4341.6919,N,07924.5408,W,1,11,0.7,7118.1,M,,,*1F"
"$GPRMC,180344,A,4341.6901,N,07924.5380,W,9.72,131.9,120825,,A*74"
"$GPGGA,180344,4341.6901,N,07924.5380,W,1,12,0.7,7116.1,M,,,*1B"
"$GPRMC,180345,A,4341.6884,N,07924.5351,W,9.72,128.5,120825,,A*71"
"$GPGGA,180345,4341.6884,N,07924.5351,W,1,12,0.8,7114.1,M,,,*17"
"$GPRMC,180346,A,4341.6869,N,07924.5321,W,9.72,125.5,120825,,A*7B"
"$GPGGA,180346,4341.6869,N,07924.5321,W,1,11,0.8,7112.1,M,,,*15"
"$GPRMC,180347,A,4341.6853,N,07924.5290,W,9.72,124.2,120825,,A*7E"
"$GPGGA,180347,4341.6853,N,07924.5290,W,1,11,0.9,7110.1,M,,,*15"
"$GPRMC,180348,A,4341.6837,N,07924.5261,W,9.72,127.9,120825,,A*75"
"$GPGGA,180348,4341.6837,N,07924.5261,W,1,11,1.8,7108.1,M,,,*1F"
"$GPRMC,180349,A,4341.6821,N,07924.5231,W,9.72,126.3,120825,,A*7D"
"$GPGGA,180349,4341.6821,N,07924.5231,W,1,8,2.0,7106.1,M,,,*21"
"$GPRMC,180350,A,4341.6807,N,07924.5199,W,9.72,121.5,120825,,A*71"
"$GPGGA,180350,4341.6807,N,07924.5199,W,1,11,1.2,7104.1,M,,,*17"
"$GPRMC,180351,A,4341.6794,N,07924.5166,W,9.72,118.1,120825,,A*7B"
"$GPGGA,180351,4341.6794,N,07924.5166,W,1,8,0.8,7102.1,M,,,*26"
"$GPRMC,180352,A,4341.6781,N,07924.5133,W,9.72,119.0,120825,,A*7C"
"$GPGGA,180352,4341.6781,N,07924.5133,W,1,7,0.9,7100.1,M,,,*2D"
"$GPRMC,180353,A,4341.6769,N,07924.5100,W,9.72,116.4,120825,,A*70"
"$GPGGA,180353,4341.6769,N,07924.5100,W,1,12,0.7,7098.1,M,,,*10"
"$GPRMC,180354,A,4341.6756,N,07924.5068,W,9.72,119.3,120825,,A*7C"
"$GPGGA,180354,4341.6756,N,07924.5068,W,1,9,2.0,7096.1,M,,,*25"
"$GPRMC,180355,A,4341.6741,N,07924.5037,W,9.72,124.3,120825,,A*7F"
"$GPGGA,180355,4341.6741,N,07924.5037,W,1,9,1.9,7094.1,M,,,*20"
"$GPRMC,180356,A,4341.6725,N,07924.5007,W,9.72,125.7,120825,,A*78"
"$GPGGA,180356,4341.6725,N,07924.5007,W,1,10,2.0,7092.1,M,,,*16"
"$GPRMC,180357,A,4341.6711,N,07924.4975,W,9.72,121.4,120825,,A*74"
"$GPGGA,180357,4341.6711,N,07924.4975,W,1,12,1.9,7090.1,M,,,*17"
"$GPRMC,180358,A,4341.6696,N,07924.4943,W,9.72,122.7,120825,,A*70"
"$GPGGA,180358,4341.6696,N,07924.4943,W,1,10,1.4,7088.1,M,,,*15"
"$GPRMC,180359,A,4341.6683,N,07924.4911,W,9.72,119.5,120825,,A*78"
"$GPGGA,180359,4341.6683,N,07924.4911,W,1,11,2.3,7086.1,M,,,*1C"
"$GPRMC,180400,A,4341.6670,N,07924.4879,W,9.72,120.1,120825,,A*7E"
"$GPGGA,180400,4341.6670,N,07924.4879,W,1,10,2.4,7084.1,M,,,*10"
"$GPRMC,180401,A,4341.6654,N,07924.4848,W,9.72,124.1,120825,,A*7F"
"$GPGGA,180401,4341.6654,N,07924.4848,W,1,11,1.4,7082.1,M,,,*11"
"$GPRMC,180402,A,4341.6640,N,07924.4816,W,9.72,122.7,120825,,A*72"
"$GPGGA,180402,4341.6640,N,07924.4816,W,1,8,1.5,7080.1,M,,,*27"
"$GPRMC,180403,A,4341.6626,N,07924.4785,W,9.72,122.1,120825,,A*70"
"$GPGGA,180403,4341.6626,N,07924.4785,W,1,6,1.6,7078.1,M,,,*29"
"$GPRMC,180404,A,4341.6610,N,07924.4754,W,9.72,124.5,120825,,A*7C"
"$GPGGA,180404,4341.6610,N,07924.4754,W,1,6,0.9,7076.1,M,,,*27"
"$GPRMC,180405,A,4341.6594,N,07924.4724,W,9.72,125.9,120825,,A*78"
"$GPGGA,180405,4341.6594,N,07924.4724,W,1,7,1.2,7074.1,M,,,*27"
"$GPRMC,180406,A,4341.6578,N,07924.4695,W,9.72,128.3,120825,,A*75"
"$GPGGA,180406,4341.6578,N,07924.4695,W,1,9,1.1,7072.1,M,,,*26"
"$GPRMC,180407,A,4341.6560,N,07924.4666,W,9.72,130.7,120825,,A*7C"
"$GPGGA,180407,4341.6560,N,07924.4666,W,1,11,1.1,7070.1,M,,,*19"
"$GPRMC,180408,A,4341.6541,N,07924.4640,W,9.72,134.4,120825,,A*73"
"$GPGGA,180408,4341.6541,N,07924.4640,W,1,11,1.4,7068.1,M,,,*1D"
"$GPRMC,180409,A,4341.6521,N,07924.4615,W,9.72,139.3,120825,,A*7E"
"$GPGGA,180409,4341.6521,N,07924.4615,W,1,10,0.8,7066.1,M,,,*18"
"$GPRMC,180410,A,4341.6502,N,07924.4590,W,9.72,136.0,120825,,A*75"
"$GPGGA,180410,4341.6502,N,07924.4590,W,1,7,1.4,7064.1,M,,,*26"
"$GPRMC,180411,A,4341.6482,N,07924.4564,W,9.72,137.6,120825,,A*71"
"$GPGGA,180411,4341.6482,N,07924.4564,W,1,7,1.7,7062.1,M,,,*20"
"$GPRMC,180412,A,4341.6462,N,07924.4539,W,9.72,136.1,120825,,A*72"
"$GPGGA,180412,4341.6462,N,07924.4539,W,1,9,1.3,7060.1,M,,,*2D"
"$GPRMC,180413,A,4341.6444,N,07924.4511,W,9.72,131.6,120825,,A*7D"
"$GPGGA,180413,4341.6444,N,07924.4511,W,1,9,0.7,7058.1,M,,,*2C"
"$GPRMC,180414,A,4341.6427,N,07924.4483,W,9.72,131.2,120825,,A*71"
"$GPGGA,180414,4341.6427,N,07924.4483,W,1,7,1.9,7056.1,M,,,*2B"
"$GPRMC,180415,A,4341.6409,N,07924.4455,W,9.72,131.6,120825,,A*73"
"$GPGGA,180415,4341.6409,N,07924.4455,W,1,11,1.5,7054.1,M,,,*14"
"$GPRMC,180416,A,4341.6392,N,07924.4425,W,9.72,127.5,120825,,A*76"
"$GPGGA,180416,4341.6392,N,07924.4425,W,1,11,2.5,7052.1,M,,,*10"
"$GPRMC,180417,A,4341.6376,N,07924.4395,W,9.72,126.6,120825,,A*73"
"$GPGGA,180417,4341.6376,N,07924.4395,W,1,10,2.5,7050.1,M,,,*14"
"$GPRMC,180418,A,4341.6358,N,07924.4367,W,9.72,131.5,120825,,A*78"
"$GPGGA,180418,4341.6358,N,07924.4367,W,1,8,2.2,7048.1,M,,,*2D"
"$GPRMC,180419,A,4341.6340,N,07924.4340,W,9.72,131.9,120825,,A*79"
"$GPGGA,180419,4341.6340,N,07924.4340,W,1,12,1.6,7046.1,M,,,*12"
"$GPRMC,180420,A,4341.6321,N,07924.4314,W,9.72,136.0,120825,,A*7B"
"$GPGGA,180420,4341.6321,N,07924.4314,W,1,8,1.3,7044.1,M,,,*22"
"$GPRMC,180421,A,4341.6300,N,07924.4290,W,9.72,140.9,120825,,A*7C"
"$GPGGA,180421,4341.6300,N,07924.4290,W,1,11,0.8,7042.1,M,,,*19"
"$GPRMC,180422,A,4341.6280,N,07924.4265,W,9.72,138.1,120825,,A*7B"
"$GPGGA,180422,4341.6280,N,07924.4265,W,1,11,0.7,7040.1,M,,,*14"
"$GPRMC,180423,A,4341.6260,N,07924.4241,W,9.72,138.5,120825,,A*76"
"$GPGGA,180423,4341.6260,N,07924.4241,W,1,6,1.4,7038.1,M,,,*26"
"$GPRMC,180424,A,4341.6240,N,07924.4215,W,9.72,136.3,120825,,A*7A"
"$GPGGA,180424,4341.6240,N,07924.4215,W,1,8,1.7,7036.1,M,,,*21"
"$GPRMC,180425,A,4341.6221,N,07924.4189,W,9.72,135.6,120825,,A*7C"
"$GPGGA,180425,4341.6221,N,07924.4189,W,1,10,2.0,7034.1,M,,,*1E"
"$GPRMC,180426,A,4341.6202,N,07924.4163,W,9.72,136.1,120825,,A*7E"
"$GPGGA,180426,4341.6202,N,07924.4163,W,1,12,2.1,7032.1,M,,,*1D"
"$GPRMC,180427,A,4341.6182,N,07924.4138,W,9.72,137.8,120825,,A*72"
"$GPGGA,180427,4341.6182,N,07924.4138,W,1,11,1.0,7030.1,M,,,*1A"
"$GPRMC,180428,A,4341.6161,N,07924.4114,W,9.72,140.1,120825,,A*77"
"$GPGGA,180428,4341.6161,N,07924.4114,W,1,12,1.6,7028.1,M,,,*1A"
"$GPRMC,180429,A,4341.6141,N,07924.4090,W,9.72,139.1,120825,,A*77"
"$GPGGA,180429,4341.6141,N,07924.4090,W,1,11,1.0,7026.1,M,,,*1F"
"$GPRMC,180430,A,4341.6119,N,07924.4067,W,9.72,143.0,120825,,A*76"
"$GPGGA,180430,4341.6119,N,07924.4067,W,1,6,2.5,7024.1,M,,,*20"
"$GPRMC,180431,A,4341.6098,N,07924.4044,W,9.72,141.9,120825,,A*75"
"$GPGGA,180431,4341.6098,N,07924.4044,W,1,10,1.5,7022.1,M,,,*1A"
"$GPRMC,180432,A,4341.6077,N,07924.4020,W,9.72,139.1,120825,,A*72"
"$GPGGA,180432,4341.6077,N,07924.4020,W,1,6,2.4,7020.1,M,,,*2D"
"$GPRMC,180433,A,4341.6058,N,07924.3994,W,9.72,135.5,120825,,A*77"
"$GPGGA,180433,4341.6058,N,07924.3994,W,1,12,1.9,7018.1,M,,,*10"
"$GPRMC,180434,A,4341.6038,N,07924.3970,W,9.72,140.2,120825,,A*79"
"$GPGGA,180434,4341.6038,N,07924.3970,W,1,11,1.0,7016.1,M,,,*1F"
"$GPRMC,180435,A,4341.6017,N,07924.3945,W,9.72,138.1,120825,,A*7F"
"$GPGGA,180435,4341.6017,N,07924.3945,W,1,9,1.5,7014.1,M,,,*2B"
"$GPRMC,180436,A,4341.5998,N,07924.3919,W,9.72,136.2,120825,,A*75"
"$GPGGA,180436,4341.5998,N,07924.3919,W,1,9,1.3,7012.1,M,,,*2C"
"$GPRMC,180437,A,4341.5978,N,07924.3895,W,9.72,138.6,120825,,A*75"
"$GPGGA,180437,4341.5978,N,07924.3895,W,1,12,1.3,7010.1,M,,,*1E"
"$GPRMC,180438,A,4341.5957,N,07924.3871,W,9.72,140.3,120825,,A*77"
"$GPGGA,180438,4341.5957,N,07924.3871,W,1,11,1.2,7008.1,M,,,*1D"
"$GPRMC,180439,A,4341.5936,N,07924.3848,W,9.72,142.7,120825,,A*7D"
"$GPGGA,180439,4341.5936,N,07924.3848,W,1,9,1.7,7006.1,M,,,*23"
"$GPRMC,180440,A,4341.5914,N,07924.3826,W,9.72,143.2,120825,,A*7F"
"$GPGGA,180440,4341.5914,N,07924.3826,W,1,10,1.3,7004.1,M,,,*1B"
"$GPRMC,180441,A,4341.5892,N,07924.3805,W,9.72,145.9,120825,,A*7D"
"$GPGGA,180441,4341.5892,N,07924.3805,W,1,6,1.7,7002.1,M,,,*21"
"$GPRMC,180442,A,4341.5870,N,07924.3783,W,9.72,144.3,120825,,A*78"
"$GPGGA,180442,4341.5870,N,07924.3783,W,1,12,2.4,7000.1,M,,,*18"
"$GPRMC,180443,A,4341.5847,N,07924.3764,W,9.72,148.4,120825,,A*7F"
"$GPGGA,180443,4341.5847,N,07924.3764,W,1,12,1.8,6998.1,M,,,*12"
"$GPRMC,180444,A,4341.5823,N,07924.3746,W,9.72,151.9,120825,,A*7F"
"$GPGGA,180444,4341.5823,N,07924.3746,W,1,6,1.1,6996.1,M,,,*25"
"$GPRMC,180445,A,4341.5799,N,07924.3731,W,9.72,155.7,120825,,A*7A"
"$GPGGA,180445,4341.5799,N,07924.3731,W,1,9,1.7,6994.1,M,,,*21"
"$GPRMC,180446,A,4341.5774,N,07924.3716,W,9.72,156.1,120825,,A*7A"
"$GPGGA,180446,4341.5774,N,07924.3716,W,1,11,2.3,6992.1,M,,,*1C"
"$GPRMC,180447,A,4341.5749,N,07924.3700,W,9.72,155.7,120825,,A*77"
"$GPGGA,180447,4341.5749,N,07924.3700,W,1,8,2.1,6990.1,M,,,*2C"
"$GPRMC,180448,A,4341.5725,N,07924.3685,W,9.72,156.4,120825,,A*7E"
"$GPGGA,180448,4341.5725,N,07924.3685,W,1,10,2.2,6988.1,M,,,*16"
"$GPRMC,180449,A,4341.5700,N,07924.3671,W,9.72,157.2,120825,,A*74"
"$GPGGA,180449,4341.5700,N,07924.3671,W,1,11,1.9,6986.1,M,,,*1C"
"$GPRMC,180450,A,4341.5675,N,07924.3657,W,9.72,157.6,120825,,A*7F"
"$GPGGA,180450,4341.5675,N,07924.3657,W,1,6,1.7,6984.1,M,,,*29"
"$GPRMC,180451,A,4341.5650,N,07924.3642,W,9.72,155.7,120825,,A*7E"
"$GPGGA,180451,4341.5650,N,07924.3642,W,1,7,0.9,6982.1,M,,,*23"
"$GPRMC,180452,A,4341.5625,N,07924.3627,W,9.72,157.4,120825,,A*7D"
"$GPGGA,180452,4341.5625,N,07924.3627,W,1,10,1.5,6980.1,M,,,*18"
"$GPRMC,180453,A,4341.5600,N,07924.3613,W,9.72,158.5,120825,,A*72"
"$GPGGA,180453,4341.5600,N,07924.3613,W,1,9,1.2,6978.1,M,,,*21"
"$GPRMC,180454,A,4341.5576,N,07924.3597,W,9.72,153.5,120825,,A*73"
"$GPGGA,180454,4341.5576,N,07924.3597,W,1,7,2.3,6976.1,M,,,*29"
"$GPRMC,180455,A,4341.5552,N,07924.3581,W,9.72,155.3,120825,,A*73"
"$GPGGA,180455,4341.5552,N,07924.3581,W,1,11,2.1,6974.1,M,,,*1E"
"$GPRMC,180456,A,4341.5527,N,07924.3567,W,9.72,156.9,120825,,A*73"
"$GPGGA,180456,4341.5527,N,07924.3567,W,1,9,1.7,6972.1,M,,,*2D"
"$GPRMC,180457,A,4341.5501,N,07924.3555,W,9.72,161.6,120825,,A*7C"
"$GPGGA,180457,4341.5501,N,07924.3555,W,1,8,1.9,6970.1,M,,,*24"
"$GPRMC,180458,A,4341.5476,N,07924.3544,W,9.72,162.6,120825,,A*71"
"$GPGGA,180458,4341.5476,N,07924.3544,W,1,7,2.4,6968.1,M,,,*22"
"$GPRMC,180459,A,4341.5450,N,07924.3532,W,9.72,162.2,120825,,A*71"
"$GPGGA,180459,4341.5450,N,07924.3532,W,1,8,2.4,6966.1,M,,,*27"
"$GPRMC,180500,A,4341.5424,N,07924.3521,W,9.72,162.1,120825,,A*7E"
"$GPGGA,180500,4341.5424,N,07924.3521,W,1,7,1.2,6964.1,M,,,*23"
"$GPRMC,180501,A,4341.5398,N,07924.3512,W,9.72,165.6,120825,,A*7F"
"$GPGGA,180501,4341.5398,N,07924.3512,W,1,10,1.2,6962.1,M,,,*12"
"$GPRMC,180502,A,4341.5372,N,07924.3505,W,9.72,169.3,120825,,A*77"
"$GPGGA,180502,4341.5372,N,07924.3505,W,1,11,1.7,6960.1,M,,,*15"
"$GPRMC,180503,A,4341.5345,N,07924.3497,W,9.72,168.4,120825,,A*7E"
"$GPGGA,180503,4341.5345,N,07924.3497,W,1,10,2.3,6958.1,M,,,*17"
"$GPRMC,180504,A,4341.5319,N,07924.3489,W,9.72,167.9,120825,,A*7D"
"$GPGGA,180504,4341.5319,N,07924.3489,W,1,7,2.3,6956.1,M,,,*2E"
"$GPRMC,180505,A,4341.5293,N,07924.3483,W,9.72,170.3,120825,,A*79"
"$GPGGA,180505,4341.5293,N,07924.3483,W,1,11,2.1,6954.1,M,,,*11"
"$GPRMC,180506,A,4341.5266,N,07924.3476,W,9.72,168.7,120825,,A*77"
"$GPGGA,180506,4341.5266,N,07924.3476,W,1,8,0.8,6952.1,M,,,*27"
"$GPRMC,180507,A,4341.5240,N,07924.3467,W,9.72,166.3,120825,,A*78"
"$GPGGA,180507,4341.5240,N,07924.3467,W,1,8,2.3,6950.1,M,,,*29"
"$GPRMC,180508,A,4341.5214,N,07924.3459,W,9.72,167.7,120825,,A*7E"
"$GPGGA,180508,4341.5214,N,07924.3459,W,1,8,2.0,6948.1,M,,,*20"
"$GPRMC,180509,A,4341.5187,N,07924.3454,W,9.72,171.7,120825,,A*7C"
"$GPGGA,180509,4341.5187,N,07924.3454,W,1,6,2.4,6946.1,M,,,*21"
"$GPRMC,180510,A,4341.5160,N,07924.3447,W,9.72,169.4,120825,,A*75"
"$GPGGA,180510,4341.5160,N,07924.3447,W,1,6,1.4,6944.1,M,,,*23"
"$GPRMC,180511,A,4341.5134,N,07924.3441,W,9.72,170.5,120825,,A*7A"
"$GPGGA,180511,4341.5134,N,07924.3441,W,1,11,1.5,6942.1,M,,,*14"
"$GPRMC,180512,A,4341.5107,N,07924.3436,W,9.72,173.2,120825,,A*7D"
"$GPGGA,180512,4341.5107,N,07924.3436,W,1,6,0.9,6940.1,M,,,*2E"
"$GPRMC,180513,A,4341.5080,N,07924.3432,W,9.72,174.1,120825,,A*72"
"$GPGGA,180513,4341.5080,N,07924.3432,W,1,10,0.9,6938.1,M,,,*1D"
"$GPRMC,180514,A,4341.5053,N,07924.3430,W,9.72,176.1,120825,,A*7B"
"$GPGGA,180514,4341.5053,N,07924.3430,W,1,6,1.9,6936.1,M,,,*2E"
"$GPRMC,180515,A,4341.5026,N,07924.3428,W,9.72,177.8,120825,,A*79"
"$GPGGA,180515,4341.5026,N,07924.3428,W,1,8,2.3,6934.1,M,,,*21"
"$GPRMC,180516,A,4341.5000,N,07924.3426,W,9.72,176.5,120825,,A*7C"
"$GPGGA,180516,4341.5000,N,07924.3426,W,1,9,2.4,6932.1,M,,,*28"
"$GPRMC,180517,A,4341.4973,N,07924.3426,W,9.72,179.9,120825,,A*72"
"$GPGGA,180517,4341.4973,N,07924.3426,W,1,9,2.3,6930.1,M,,,*20"
"$GPRMC,180518,A,4341.4946,N,07924.3426,W,9.72,179.7,120825,,A*75"
"$GPGGA,180518,4341.4946,N,07924.3426,W,1,12,2.2,6928.1,M,,,*1B"
"$GPRMC,180519,A,4341.4919,N,07924.3423,W,9.72,175.7,120825,,A*77"
"$GPGGA,180519,4341.4919,N,07924.3423,W,1,11,2.3,6926.1,M,,,*19"
"$GPRMC,180520,A,4341.4892,N,07924.3419,W,9.72,173.9,120825,,A*7E"
"$GPGGA,180520,4341.4892,N,07924.3419,W,1,10,1.9,6924.1,M,,,*12"
"$GPRMC,180521,A,4341.4865,N,07924.3418,W,9.72,178.2,120825,,A*76"
"$GPGGA,180521,4341.4865,N,07924.3418,W,1,6,1.7,6922.1,M,,,*25"
"$GPRMC,180522,A,4341.4838,N,07924.3415,W,9.72,175.6,120825,,A*79"
"$GPGGA,180522,4341.4838,N,07924.3415,W,1,7,2.0,6920.1,M,,,*24"
"$GPRMC,180523,A,4341.4811,N,07924.3411,W,9.72,172.9,120825,,A*7F"
"$GPGGA,180523,4341.4811,N,07924.3411,W,1,9,2.3,6918.1,M,,,*2C"
"$GPRMC,180524,A,4341.4785,N,07924.3403,W,9.72,168.3,120825,,A*78"
"$GPGGA,180524,4341.4785,N,07924.3403,W,1,8,2.5,6916.1,M,,,*23"
"$GPRMC,180525,A,4341.4759,N,07924.3394,W,9.72,165.3,120825,,A*7C"
"$GPGGA,180525,4341.4759,N,07924.3394,W,1,6,2.1,6914.1,M,,,*22"
"$GPRMC,180526,A,4341.4734,N,07924.3381,W,9.72,160.8,120825,,A*7E"
"$GPGGA,180526,4341.4734,N,07924.3381,W,1,7,1.1,6912.1,M,,,*2A"
"$GPRMC,180527,A,4341.4708,N,07924.3371,W,9.72,164.6,120825,,A*75"
"$GPGGA,180527,4341.4708,N,07924.3371,W,1,10,2.2,6910.1,M,,,*1F"
"$GPRMC,180528,A,4341.4681,N,07924.3363,W,9.72,166.4,120825,,A*79"
"$GPGGA,180528,4341.4681,N,07924.3363,W,1,6,2.1,6908.1,M,,,*2E"
"$GPRMC,180529,A,4341.4655,N,07924.3352,W,9.72,164.1,120825,,A*74"
"$GPGGA,180529,4341.4655,N,07924.3352,W,1,11,2.1,6906.1,M,,,*1C"
"$GPRMC,180530,A,4341.4630,N,07924.3341,W,9.72,163.1,120825,,A*7A"
"$GPGGA,180530,4341.4630,N,07924.3341,W,1,11,1.6,6904.1,M,,,*13"
"$GPRMC,180531,A,4341.4604,N,07924.3330,W,9.72,161.9,120825,,A*70"
"$GPGGA,180531,4341.4604,N,07924.3330,W,1,9,1.7,6902.1,M,,,*2D"
"$GPRMC,180532,A,4341.4578,N,07924.3318,W,9.72,161.6,120825,,A*7E"
"$GPGGA,180532,4341.4578,N,07924.3318,W,1,8,2.0,6900.1,M,,,*2B"
"$GPRMC,180533,A,4341.4553,N,07924.3306,W,9.72,160.2,120825,,A*7C"
"$GPGGA,180533,4341.4553,N,07924.3306,W,1,11,2.2,6898.1,M,,,*16"
"$GPRMC,180534,A,4341.4527,N,07924.3296,W,9.72,164.8,120825,,A*7E"
"$GPGGA,180534,4341.4527,N,07924.3296,W,1,10,1.1,6898.1,M,,,*1B"
"$GPRMC,180535,A,4341.4501,N,07924.3286,W,9.72,164.6,120825,,A*74"
"$GPGGA,180535,4341.4501,N,07924.3286,W,1,12,1.4,6898.1,M,,,*18"
"$GPRMC,180536,A,4341.4476,N,07924.3273,W,9.72,160.6,120825,,A*78"
"$GPGGA,180536,4341.4476,N,07924.3273,W,1,12,0.7,6898.1,M,,,*12"
"$GPRMC,180537,A,4341.4450,N,07924.3262,W,9.72,162.3,120825,,A*7A"
"$GPGGA,180537,4341.4450,N,07924.3262,W,1,8,1.1,6898.1,M,,,*2B"
"$GPRMC,180538,A,4341.4424,N,07924.3252,W,9.72,164.5,120825,,A*75"
"$GPGGA,180538,4341.4424,N,07924.3252,W,1,11,1.0,6898.1,M,,,*1D"
"$GPRMC,180539,A,4341.4398,N,07924.3244,W,9.72,166.5,120825,,A*71"
"$GPGGA,180539,4341.4398,N,07924.3244,W,1,7,1.0,6898.1,M,,,*2C"
"$GPRMC,180540,A,4341.4371,N,07924.3236,W,9.72,169.1,120825,,A*76"
"$GPGGA,180540,4341.4371,N,07924.3236,W,1,7,2.1,6898.1,M,,,*22"
"$GPRMC,180541,A,4341.4345,N,07924.3230,W,9.72,169.7,120825,,A*70"
"$GPGGA,180541,4341.4345,N,07924.3230,W,1,8,1.6,6898.1,M,,,*29"
"$GPRMC,180542,A,4341.4318,N,07924.3225,W,9.72,172.5,120825,,A*77"
"$GPGGA,180542,4341.4318,N,07924.3225,W,1,11,1.2,6898.1,M,,,*1A"
"$GPRMC,180543,A,4341.4292,N,07924.3219,W,9.72,170.6,120825,,A*7B"
"$GPGGA,180543,4341.4292,N,07924.3219,W,1,10,1.4,6898.1,M,,,*10"
"$GPRMC,180544,A,4341.4265,N,07924.3212,W,9.72,169.7,120825,,A*76"
"$GPGGA,180544,4341.4265,N,07924.3212,W,1,11,1.2,6898.1,M,,,*13"
"$GPRMC,180545,A,4341.4239,N,07924.3205,W,9.72,169.0,120825,,A*7F"
"$GPGGA,180545,4341.4239,N,07924.3205,W,1,9,1.2,6898.1,M,,,*24"
"$GPRMC,180546,A,4341.4212,N,07924.3197,W,9.72,166.9,120825,,A*7B"
"$GPGGA,180546,4341.4212,N,07924.3197,W,1,10,1.3,6898.1,M,,,*1F"
"$GPRMC,180547,A,4341.4186,N,07924.3188,W,9.72,167.2,120825,,A*70"
"$GPGGA,180547,4341.4186,N,07924.3188,W,1,8,1.6,6898.1,M,,,*22"
"$GPRMC,180548,A,4341.4160,N,07924.3178,W,9.72,164.2,120825,,A*7B"
"$GPGGA,180548,4341.4160,N,07924.3178,W,1,10,2.3,6898.1,M,,,*15"
"$GPRMC,180549,A,4341.4135,N,07924.3166,W,9.72,160.2,120825,,A*71"
"$GPGGA,180549,4341.4135,N,07924.3166,W,1,8,1.6,6898.1,M,,,*24"
"$GPRMC,180550,A,4341.4109,N,07924.3154,W,9.72,161.3,120825,,A*77"
"$GPGGA,180550,4341.4109,N,07924.3154,W,1,7,1.5,6898.1,M,,,*2E"
"$GPRMC,180551,A,4341.4084,N,07924.3142,W,9.72,162.0,120825,,A*75"
"$GPGGA,180551,4341.4084,N,07924.3142,W,1,8,1.0,6898.1,M,,,*26"
"$GPRMC,180552,A,4341.4058,N,07924.3130,W,9.72,161.1,120825,,A*70"
"$GPGGA,180552,4341.4058,N,07924.3130,W,1,12,2.2,6898.1,M,,,*1B"
"$GPRMC,180553,A,4341.4033,N,07924.3118,W,9.72,161.8,120825,,A*7F"
"$GPGGA,180553,4341.4033,N,07924.3118,W,1,8,1.8,6898.1,M,,,*2F"
"$GPRMC,180554,A,4341.4007,N,07924.3105,W,9.72,158.8,120825,,A*79"
"$GPGGA,180554,4341.4007,N,07924.3105,W,1,12,0.8,6898.1,M,,,*19"
"$GPRMC,180555,A,4341.3982,N,07924.3094,W,9.72,163.4,120825,,A*76"
"$GPGGA,180555,4341.3982,N,07924.3094,W,1,7,2.3,6898.1,M,,,*2F"
"$GPRMC,180556,A,4341.3956,N,07924.3083,W,9.72,162.5,120825,,A*7A"
"$GPGGA,180556,4341.3956,N,07924.3083,W,1,6,1.2,6898.1,M,,,*20"
"$GPRMC,180557,A,4341.3930,N,07924.3071,W,9.72,160.7,120825,,A*76"
"$GPGGA,180557,4341.3930,N,07924.3071,W,1,8,1.6,6898.1,M,,,*26"
"$GPRMC,180558,A,4341.3906,N,07924.3056,W,9.72,156.7,120825,,A*7C"
"$GPGGA,180558,4341.3906,N,07924.3056,W,1,10,1.0,6898.1,M,,,*16"
"$GPRMC,180559,A,4341.3882,N,07924.3038,W,9.72,151.9,120825,,A*71"
"$GPGGA,180559,4341.3882,N,07924.3038,W,1,12,0.7,6898.1,M,,,*16"
"$GPRMC,180600,A,4341.3858,N,07924.3022,W,9.72,153.9,120825,,A*70"
"$GPGGA,180600,4341.3858,N,07924.3022,W,1,8,2.5,6898.1,M,,,*2E"
"$GPRMC,180601,A,4341.3834,N,07924.3005,W,9.72,153.4,120825,,A*73"
"$GPGGA,180601,4341.3834,N,07924.3005,W,1,6,1.7,6898.1,M,,,*2F"
"$GPRMC,180602,A,4341.3809,N,07924.2990,W,9.72,155.5,120825,,A*7D"
"$GPGGA,180602,4341.3809,N,07924.2990,W,1,6,1.3,6898.1,M,,,*22"
"$GPRMC,180603,A,4341.3785,N,07924.2975,W,9.72,155.7,120825,,A*7E"
"$GPGGA,180603,4341.3785,N,07924.2975,W,1,10,2.2,6898.1,M,,,*16"
"$GPRMC,180604,A,4341.3760,N,07924.2959,W,9.72,155.4,120825,,A*7F"
"$GPGGA,180604,4341.3760,N,07924.2959,W,1,6,1.2,6898.1,M,,,*20"
"$GPRMC,180605,A,4341.3735,N,07924.2944,W,9.72,156.8,120825,,A*7D"
"$GPGGA,180605,4341.3735,N,07924.2944,W,1,11,0.8,6898.1,M,,,*10"
"$GPRMC,180606,A,4341.3710,N,07924.2932,W,9.72,160.8,120825,,A*7D"
"$GPGGA,180606,4341.3710,N,07924.2932,W,1,9,0.7,6898.1,M,,,*23"
"$GPRMC,180607,A,4341.3684,N,07924.2922,W,9.72,165.0,120825,,A*7C"
"$GPGGA,180607,4341.3684,N,07924.2922,W,1,7,0.8,6898.1,M,,,*2E"
"$GPRMC,180608,A,4341.3657,N,07924.2915,W,9.72,168.2,120825,,A*76"
"$GPGGA,180608,4341.3657,N,07924.2915,W,1,8,2.2,6898.1,M,,,*2C"
"$GPRMC,180609,A,4341.3631,N,07924.2910,W,9.72,172.7,120825,,A*7C"
"$GPGGA,180609,4341.3631,N,07924.2910,W,1,7,1.8,6898.1,M,,,*2E"
"$GPRMC,180610,A,4341.3604,N,07924.2903,W,9.72,169.5,120825,,A*78"
"$GPGGA,180610,4341.3604,N,07924.2903,W,1,12,2.0,6898.1,M,,,*1D"
"$GPRMC,180611,A,4341.3578,N,07924.2894,W,9.72,164.8,120825,,A*7E"
"$GPGGA,180611,4341.3578,N,07924.2894,W,1,12,1.4,6898.1,M,,,*1C"
"$GPRMC,180612,A,4341.3552,N,07924.2883,W,9.72,164.0,120825,,A*7B"
"$GPGGA,180612,4341.3552,N,07924.2883,W,1,9,1.0,6898.1,M,,,*2F"
"$GPRMC,180613,A,4341.3527,N,07924.2871,W,9.72,160.2,120825,,A*73"
"$GPGGA,180613,4341.3527,N,07924.2871,W,1,10,0.9,6898.1,M,,,*11"
"$GPRMC,180614,A,4341.3501,N,07924.2859,W,9.72,162.3,120825,,A*79"
"$GPGGA,180614,4341.3501,N,07924.2859,W,1,12,1.5,6898.1,M,,,*17"
"$GPRMC,180615,A,4341.3476,N,07924.2846,W,9.72,159.0,120825,,A*7C"
"$GPGGA,180615,4341.3476,N,07924.2846,W,1,9,1.0,6898.1,M,,,*26"
"$GPRMC,180616,A,4341.3451,N,07924.2831,W,9.72,156.5,120825,,A*70"
"$GPGGA,180616,4341.3451,N,07924.2831,W,1,7,1.1,6898.1,M,,,*2F"
"$GPRMC,180617,A,4341.3426,N,07924.2818,W,9.72,159.7,120825,,A*77"
"$GPGGA,180617,4341.3426,N,07924.2818,W,1,7,1.3,6898.1,M,,,*27"
"$GPRMC,180618,A,4341.3400,N,07924.2807,W,9.72,162.6,120825,,A*7B"
"$GPGGA,180618,4341.3400,N,07924.2807,W,1,6,2.2,6898.1,M,,,*21"
"$GPRMC,180619,A,4341.3374,N,07924.2798,W,9.72,166.4,120825,,A*71"
"$GPGGA,180619,4341.3374,N,07924.2798,W,1,9,0.9,6898.1,M,,,*2B"
"$GPRMC,180620,A,4341.3348,N,07924.2791,W,9.72,168.2,120825,,A*75"
"$GPGGA,180620,4341.3348,N,07924.2791,W,1,11,2.0,6898.1,M,,,*15"
"$GPRMC,180621,A,4341.3321,N,07924.2783,W,9.72,167.4,120825,,A*71"
"$GPGGA,180621,4341.3321,N,07924.2783,W,1,7,1.8,6898.1,M,,,*24"
"$GPRMC,180622,A,4341.3296,N,07924.2772,W,9.72,163.8,120825,,A*79"
"$GPGGA,180622,4341.3296,N,07924.2772,W,1,7,1.5,6898.1,M,,,*29"
"$GPRMC,180623,A,4341.3270,N,07924.2760,W,9.72,161.0,120825,,A*79"
"$GPGGA,180623,4341.3270,N,07924.2760,W,1,6,2.4,6898.1,M,,,*20"
"$GPRMC,180624,A,4341.3244,N,07924.2751,W,9.72,165.1,120825,,A*7E"
"$GPGGA,180624,4341.3244,N,07924.2751,W,1,12,0.7,6898.1,M,,,*16"
"$GPRMC,180625,A,4341.3218,N,07924.2744,W,9.72,169.3,120825,,A*7C"
"$GPGGA,180625,4341.3218,N,07924.2744,W,1,6,2.1,6898.1,M,,,*2B"
"$GPRMC,180626,A,4341.3191,N,07924.2734,W,9.72,165.5,120825,,A*70"
"$GPGGA,180626,4341.3191,N,07924.2734,W,1,12,1.8,6898.1,M,,,*12"
"$GPRMC,180627,A,4341.3165,N,07924.2725,W,9.72,164.9,120825,,A*77"
"$GPGGA,180627,4341.3165,N,07924.2725,W,1,8,1.9,6898.1,M,,,*22"
"$GPRMC,180628,A,4341.3140,N,07924.2714,W,9.72,163.5,120825,,A*76"
"$GPGGA,180628,4341.3140,N,07924.2714,W,1,9,1.7,6898.1,M,,,*27"
"$GPRMC,180629,A,4341.3115,N,07924.2700,W,9.72,158.6,120825,,A*79"
"$GPGGA,180629,4341.3115,N,07924.2700,W,1,9,1.6,6898.1,M,,,*22"
"$GPRMC,180630,A,4341.3090,N,07924.2685,W,9.72,156.0,120825,,A*79"
"$GPGGA,180630,4341.3090,N,07924.2685,W,1,8,1.6,6898.1,M,,,*2B"
"$GPRMC,180631,A,4341.3065,N,07924.2672,W,9.72,159.3,120825,,A*76"
"$GPGGA,180631,4341.3065,N,07924.2672,W,1,12,2.2,6898.1,M,,,*14"
"$GPRMC,180632,A,4341.3039,N,07924.2662,W,9.72,163.6,120825,,A*71"
"$GPGGA,180632,4341.3039,N,07924.2662,W,1,11,2.1,6898.1,M,,,*1F"
"$GPRMC,180633,A,4341.3013,N,07924.2649,W,9.72,160.5,120825,,A*71"
"$GPGGA,180633,4341.3013,N,07924.2649,W,1,11,1.1,6898.1,M,,,*1C"
"$GPRMC,180634,A,4341.2988,N,07924.2636,W,9.72,159.0,120825,,A*7B"
"$GPGGA,180634,4341.2988,N,07924.2636,W,1,12,1.1,6898.1,M,,,*1A"
"$GPRMC,180635,A,4341.2963,N,07924.2624,W,9.72,162.2,120825,,A*76"
"$GPGGA,180635,4341.2963,N,07924.2624,W,1,6,2.0,6898.1,M,,,*2A"
"$GPRMC,180636,A,4341.2937,N,07924.2615,W,9.72,165.3,120825,,A*70"
"$GPGGA,180636,4341.2937,N,07924.2615,W,1,11,2.4,6898.1,M,,,*18"
"$GPRMC,180637,A,4341.2911,N,07924.2604,W,9.72,162.5,120825,,A*74"
"$GPGGA,180637,4341.2911,N,07924.2604,W,1,9,2.2,6898.1,M,,,*22"
"$GPRMC,180638,A,4341.2885,N,07924.2592,W,9.72,161.4,120825,,A*79"
"$GPGGA,180638,4341.2885,N,07924.2592,W,1,7,1.0,6898.1,M,,,*22"
"$GPRMC,180639,A,4341.2860,N,07924.2578,W,9.72,158.2,120825,,A*7B"
"$GPGGA,180639,4341.2860,N,07924.2578,W,1,6,1.1,6898.1,M,,,*2C"
"$GPRMC,180640,A,4341.2835,N,07924.2567,W,9.72,163.2,120825,,A*73"
"$GPGGA,180640,4341.2835,N,07924.2567,W,1,6,1.0,6898.1,M,,,*2D"
"$GPRMC,180641,A,4341.2809,N,07924.2557,W,9.72,163.9,120825,,A*75"
"$GPGGA,180641,4341.2809,N,07924.2557,W,1,9,1.9,6898.1,M,,,*26"
"$GPRMC,180642,A,4341.2783,N,07924.2546,W,9.72,163.2,120825,,A*70"
"$GPGGA,180642,4341.2783,N,07924.2546,W,1,6,2.0,6898.1,M,,,*2D"
"$GPRMC,180643,A,4341.2757,N,07924.2536,W,9.72,164.3,120825,,A*79"
"$GPGGA,180643,4341.2757,N,07924.2536,W,1,9,0.9,6898.1,M,,,*26"
"$GPRMC,180644,A,4341.2730,N,07924.2528,W,9.72,168.2,120825,,A*7D"
"$GPGGA,180644,4341.2730,N,07924.2528,W,1,10,1.1,6898.1,M,,,*1E"
"$GPRMC,180645,A,4341.2704,N,07924.2519,W,9.72,165.3,120825,,A*75"
"$GPGGA,180645,4341.2704,N,07924.2519,W,1,12,1.8,6898.1,M,,,*11"
"$GPRMC,180646,A,4341.2678,N,07924.2509,W,9.72,164.5,120825,,A*7A"
"$GPGGA,180646,4341.2678,N,07924.2509,W,1,12,2.4,6898.1,M,,,*16"
"$GPRMC,180647,A,4341.2653,N,07924.2498,W,9.72,162.3,120825,,A*7B"
"$GPGGA,180647,4341.2653,N,07924.2498,W,1,8,2.2,6898.1,M,,,*2A"
"$GPRMC,180648,A,4341.2627,N,07924.2489,W,9.72,166.7,120825,,A*77"
"$GPGGA,180648,4341.2627,N,07924.2489,W,1,10,0.9,6898.1,M,,,*16"
"$GPRMC,180649,A,4341.2601,N,07924.2478,W,9.72,162.6,120825,,A*79"
"$GPGGA,180649,4341.2601,N,07924.2478,W,1,7,1.0,6898.1,M,,,*23"
"$GPRMC,180650,A,4341.2576,N,07924.2464,W,9.72,158.7,120825,,A*77"
"$GPGGA,180650,4341.2576,N,07924.2464,W,1,12,2.0,6898.1,M,,,*12"
"$GPRMC,180651,A,4341.2551,N,07924.2450,W,9.72,156.9,120825,,A*74"
"$GPGGA,180651,4341.2551,N,07924.2450,W,1,10,2.2,6898.1,M,,,*11"
"$GPRMC,180652,A,4341.2526,N,07924.2437,W,9.72,160.7,120825,,A*7D"
"$GPGGA,180652,4341.2526,N,07924.2437,W,1,12,0.9,6898.1,M,,,*18"
"$GPRMC,180653,A,4341.2500,N,07924.2427,W,9.72,164.4,120825,,A*7E"
"$GPGGA,180653,4341.2500,N,07924.2427,W,1,7,2.2,6898.1,M,,,*21"
"$GPRMC,180654,A,4341.2473,N,07924.2419,W,9.72,167.3,120825,,A*75"
"$GPGGA,180654,4341.2473,N,07924.2419,W,1,8,1.7,6898.1,M,,,*27"
"$GPRMC,180655,A,4341.2447,N,07924.2412,W,9.72,168.4,120825,,A*70"
"$GPGGA,180655,4341.2447,N,07924.2412,W,1,11,2.3,6898.1,M,,,*15"
"$GPRMC,180656,A,4341.2420,N,07924.2407,W,9.72,173.1,120825,,A*79"
"$GPGGA,180656,4341.2420,N,07924.2407,W,1,6,1.0,6898.1,M,,,*25"
"$GPRMC,180657,A,4341.2394,N,07924.2401,W,9.72,170.2,120825,,A*76"
"$GPGGA,180657,4341.2394,N,07924.2401,W,1,11,2.3,6898.1,M,,,*1C"
"$GPRMC,180658,A,4341.2367,N,07924.2396,W,9.72,172.8,120825,,A*74"
"$GPGGA,180658,4341.2367,N,07924.2396,W,1,12,1.1,6898.1,M,,,*14"
"$GPRMC,180659,A,4341.2340,N,07924.2393,W,9.72,174.9,120825,,A*72"
"$GPGGA,180659,4341.2340,N,07924.2393,W,1,9,2.4,6898.1,M,,,*29"
"$GPRMC,180700,A,4341.2313,N,07924.2391,W,9.72,176.7,120825,,A*77"
"$GPGGA,180700,4341.2313,N,07924.2391,W,1,12,1.0,6898.1,M,,,*1D"
"$GPRMC,180701,A,4341.2286,N,07924.2386,W,9.72,173.0,120825,,A*7F"
"$GPGGA,180701,4341.2286,N,07924.2386,W,1,8,0.7,6898.1,M,,,*2A"
"$GPRMC,180702,A,4341.2260,N,07924.2380,W,9.72,169.7,120825,,A*7E"
"$GPGGA,180702,4341.2260,N,07924.2380,W,1,9,1.8,6898.1,M,,,*28"
"$GPRMC,180703,A,4341.2233,N,07924.2372,W,9.72,168.1,120825,,A*73"
"$GPGGA,180703,4341.2233,N,07924.2372,W,1,9,2.0,6898.1,M,,,*29"
"$GPRMC,180704,A,4341.2207,N,07924.2366,W,9.72,171.3,120825,,A*7C"
"$GPGGA,180704,4341.2207,N,07924.2366,W,1,11,1.4,6898.1,M,,,*12"
"$GPRMC,180705,A,4341.2180,N,07924.2362,W,9.72,173.6,120825,,A*72"
"$GPGGA,180705,4341.2180,N,07924.2362,W,1,9,2.4,6898.1,M,,,*21"
"$GPRMC,180706,A,4341.2153,N,07924.2356,W,9.72,170.3,120825,,A*7E"
"$GPGGA,180706,4341.2153,N,07924.2356,W,1,9,2.3,6898.1,M,,,*2C"
"$GPRMC,180707,A,4341.2127,N,07924.2352,W,9.72,173.6,120825,,A*7E"
"$GPGGA,180707,4341.2127,N,07924.2352,W,1,8,1.9,6898.1,M,,,*22"
"$GPRMC,180708,A,4341.2100,N,07924.2348,W,9.72,174.0,120825,,A*7E"
"$GPGGA,180708,4341.2100,N,07924.2348,W,1,12,2.5,6898.1,M,,,*17"
"$GPRMC,180709,A,4341.2073,N,07924.2347,W,9.72,179.0,120825,,A*78"
"$GPGGA,180709,4341.2073,N,07924.2347,W,1,11,2.1,6898.1,M,,,*1B"
"$GPRMC,180710,A,4341.2046,N,07924.2343,W,9.72,174.0,120825,,A*7F"
"$GPGGA,180710,4341.2046,N,07924.2343,W,1,9,1.0,6898.1,M,,,*2A"
"$GPRMC,180711,A,4341.2019,N,07924.2342,W,9.72,177.8,120825,,A*7E"
"$GPGGA,180711,4341.2019,N,07924.2342,W,1,12,1.9,6898.1,M,,,*13"
"$GPRMC,180712,A,4341.1992,N,07924.2341,W,9.72,179.0,120825,,A*71"
"$GPGGA,180712,4341.1992,N,07924.2341,W,1,7,2.4,6898.1,M,,,*20"
"$GPRMC,180713,A,4341.1965,N,07924.2342,W,9.72,181.1,120825,,A*7D"
"$GPGGA,180713,4341.1965,N,07924.2342,W,1,9,1.1,6898.1,M,,,*22"
"$GPRMC,180714,A,4341.1938,N,07924.2345,W,9.72,184.3,120825,,A*72"
"$GPGGA,180714,4341.1938,N,07924.2345,W,1,10,0.9,6898.1,M,,,*1B"
"$GPRMC,180715,A,4341.1912,N,07924.2347,W,9.72,183.0,120825,,A*7D"
"$GPGGA,180715,4341.1912,N,07924.2347,W,1,7,2.5,6898.1,M,,,*28"
"$GPRMC,180716,A,4341.1885,N,07924.2351,W,9.72,186.4,120825,,A*77"
"$GPGGA,180716,4341.1885,N,07924.2351,W,1,10,1.2,6898.1,M,,,*11"
"$GPRMC,180717,A,4341.1858,N,07924.2356,W,9.72,187.9,120825,,A*7D"
"$GPGGA,180717,4341.1858,N,07924.2356,W,1,8,1.8,6898.1,M,,,*24"
"$GPRMC,180718,A,4341.1831,N,07924.2362,W,9.72,189.4,120825,,A*79"
"$GPGGA,180718,4341.1831,N,07924.2362,W,1,7,2.5,6898.1,M,,,*22"
"$GPRMC,180719,A,4341.1805,N,07924.2365,W,9.72,185.1,120825,,A*71"
"$GPGGA,180719,4341.1805,N,07924.2365,W,1,9,1.6,6898.1,M,,,*2D"
"$GPRMC,180720,A,4341.1778,N,07924.2369,W,9.72,185.6,120825,,A*75"
"$GPGGA,180720,4341.1778,N,07924.2369,W,1,10,1.3,6898.1,M,,,*13"
"$GPRMC,180721,A,4341.1751,N,07924.2374,W,9.72,188.4,120825,,A*7C"
"$GPGGA,180721,4341.1751,N,07924.2374,W,1,12,1.0,6898.1,M,,,*14"
"$GPRMC,180722,A,4341.1725,N,07924.2382,W,9.72,191.9,120825,,A*70"
"$GPGGA,180722,4341.1725,N,07924.2382,W,1,11,2.1,6898.1,M,,,*1C"
"$GPRMC,180723,A,4341.1698,N,07924.2387,W,9.72,187.2,120825,,A*7F"
"$GPGGA,180723,4341.1698,N,07924.2387,W,1,12,2.2,6898.1,M,,,*1F"
"$GPRMC,180724,A,4341.1671,N,07924.2389,W,9.72,183.3,120825,,A*74"
"$GPGGA,180724,4341.1671,N,07924.2389,W,1,12,1.6,6898.1,M,,,*16"
"$GPRMC,180725,A,4341.1644,N,07924.2391,W,9.72,183.4,120825,,A*7D"
"$GPGGA,180725,4341.1644,N,07924.2391,W,1,8,1.7,6898.1,M,,,*22"
"$GPRMC,180726,A,4341.1618,N,07924.2396,W,9.72,187.6,120825,,A*76"
"$GPGGA,180726,4341.1618,N,07924.2396,W,1,9,1.8,6898.1,M,,,*21"
"$GPRMC,180727,A,4341.1591,N,07924.2402,W,9.72,189.3,120825,,A*74"
"$GPGGA,180727,4341.1591,N,07924.2402,W,1,9,2.2,6898.1,M,,,*21"
"$GPRMC,180728,A,4341.1564,N,07924.2407,W,9.72,188.3,120825,,A*75"
"$GPGGA,180728,4341.1564,N,07924.2407,W,1,9,1.7,6898.1,M,,,*27"
"$GPRMC,180729,A,4341.1537,N,07924.2412,W,9.72,186.9,120825,,A*72"
"$GPGGA,180729,4341.1537,N,07924.2412,W,1,6,1.8,6898.1,M,,,*24"
"$GPRMC,180730,A,4341.1511,N,07924.2417,W,9.72,187.8,120825,,A*7B"
"$GPGGA,180730,4341.1511,N,07924.2417,W,1,8,2.2,6898.1,M,,,*2A"
"$GPRMC,180731,A,4341.1484,N,07924.2421,W,9.72,186.1,120825,,A*7A"
"$GPGGA,180731,4341.1484,N,07924.2421,W,1,10,2.3,6898.1,M,,,*1B"
"$GPRMC,180732,A,4341.1457,N,07924.2426,W,9.72,187.8,120825,,A*78"
"$GPGGA,180732,4341.1457,N,07924.2426,W,1,7,2.1,6898.1,M,,,*25"
"$GPRMC,180733,A,4341.1431,N,07924.2430,W,9.72,186.9,120825,,A*7E"
"$GPGGA,180733,4341.1431,N,07924.2430,W,1,9,1.0,6898.1,M,,,*2F"
"$GPRMC,180734,A,4341.1404,N,07924.2437,W,9.72,189.4,120825,,A*7A"
"$GPGGA,180734,4341.1404,N,07924.2437,W,1,7,1.3,6898.1,M,,,*24"
"$GPRMC,180735,A,4341.1378,N,07924.2444,W,9.72,191.9,120825,,A*77"
"$GPGGA,180735,4341.1378,N,07924.2444,W,1,11,2.0,6898.1,M,,,*1A"
"$GPRMC,180736,A,4341.1351,N,07924.2449,W,9.72,188.1,120825,,A*72"
"$GPGGA,180736,4341.1351,N,07924.2449,W,1,7,1.1,6898.1,M,,,*2A"
"$GPRMC,180737,A,4341.1324,N,07924.2455,W,9.72,188.2,120825,,A*7F"
"$GPGGA,180737,4341.1324,N,07924.2455,W,1,12,1.3,6898.1,M,,,*12"
"$GPRMC,180738,A,4341.1297,N,07924.2459,W,9.72,186.8,120825,,A*71"
"$GPGGA,180738,4341.1297,N,07924.2459,W,1,6,1.7,6898.1,M,,,*29"
"$GPRMC,180739,A,4341.1271,N,07924.2461,W,9.72,182.8,120825,,A*77"
"$GPGGA,180739,4341.1271,N,07924.2461,W,1,9,1.5,6898.1,M,,,*26"
"$GPRMC,180740,A,4341.1244,N,07924.2463,W,9.72,183.5,120825,,A*71"
"$GPGGA,180740,4341.1244,N,07924.2463,W,1,6,0.8,6898.1,M,,,*2F"
"$GPRMC,180741,A,4341.1217,N,07924.2466,W,9.72,183.7,120825,,A*71"
"$GPGGA,180741,4341.1217,N,07924.2466,W,1,7,0.9,6898.1,M,,,*2D"
"$GPRMC,180742,A,4341.1190,N,07924.2466,W,9.72,180.3,120825,,A*79"
"$GPGGA,180742,4341.1190,N,07924.2466,W,1,6,1.7,6898.1,M,,,*2C"
"$GPRMC,180743,A,4341.1163,N,07924.2465,W,9.72,178.5,120825,,A*76"
"$GPGGA,180743,4341.1163,N,07924.2465,W,1,10,1.4,6898.1,M,,,*16"
"$GPRMC,180744,A,4341.1136,N,07924.2465,W,9.72,179.6,120825,,A*73"
"$GPGGA,180744,4341.1136,N,07924.2465,W,1,8,1.3,6898.1,M,,,*2F"
"$GPRMC,180745,A,4341.1109,N,07924.2466,W,9.72,182.6,120825,,A*79"
"$GPGGA,180745,4341.1109,N,07924.2466,W,1,10,1.2,6898.1,M,,,*19"
"$GPRMC,180746,A,4341.1082,N,07924.2465,W,9.72,178.0,120825,,A*78"
"$GPGGA,180746,4341.1082,N,07924.2465,W,1,6,1.6,6898.1,M,,,*28"
"$GPRMC,180747,A,4341.1055,N,07924.2465,W,9.72,179.9,120825,,A*7B"
"$GPGGA,180747,4341.1055,N,07924.2465,W,1,11,0.8,6898.1,M,,,*1A"
"$GPRMC,180748,A,4341.1028,N,07924.2466,W,9.72,181.6,120825,,A*75"
"$GPGGA,180748,4341.1028,N,07924.2466,W,1,11,0.7,6898.1,M,,,*13"
"$GPRMC,180749,A,4341.1001,N,07924.2470,W,9.72,186.4,120825,,A*7D"
"$GPGGA,180749,4341.1001,N,07924.2470,W,1,10,2.4,6898.1,M,,,*1E"
"$GPRMC,180750,A,4341.0975,N,07924.2474,W,9.72,185.8,120825,,A*75"
"$GPGGA,180750,4341.0975,N,07924.2474,W,1,12,1.2,6898.1,M,,,*1E"
"$GPRMC,180751,A,4341.0948,N,07924.2476,W,9.72,183.8,120825,,A*7E"
"$GPGGA,180751,4341.0948,N,07924.2476,W,1,7,0.8,6898.1,M,,,*2C"
"$GPRMC,180752,A,4341.0921,N,07924.2479,W,9.72,183.3,120825,,A*76"
"$GPGGA,180752,4341.0921,N,07924.2479,W,1,11,1.3,6898.1,M,,,*12"
"$GPRMC,180753,A,4341.0894,N,07924.2478,W,9.72,179.6,120825,,A*79"
"$GPGGA,180753,4341.0894,N,07924.2478,W,1,12,1.8,6898.1,M,,,*15"
"$GPRMC,180754,A,4341.0867,N,07924.2479,W,9.72,180.4,120825,,A*77"
"$GPGGA,180754,4341.0867,N,07924.2479,W,1,8,1.1,6898.1,M,,,*2D"
"$GPRMC,180755,A,4341.0840,N,07924.2481,W,9.72,184.2,120825,,A*76"
"$GPGGA,180755,4341.0840,N,07924.2481,W,1,7,1.0,6898.1,M,,,*20"
"$GPRMC,180756,A,4341.0813,N,07924.2483,W,9.72,182.7,120825,,A*72"
"$GPGGA,180756,4341.0813,N,07924.2483,W,1,10,1.9,6898.1,M,,,*18"
"$GPRMC,180757,A,4341.0786,N,07924.2487,W,9.72,186.6,120825,,A*71"
"$GPGGA,180757,4341.0786,N,07924.2487,W,1,12,0.9,6898.1,M,,,*1D"
"$GPRMC,180758,A,4341.0760,N,07924.2493,W,9.72,188.0,120825,,A*7B"
"$GPGGA,180758,4341.0760,N,07924.2493,W,1,6,1.8,6898.1,M,,,*2A"
"$GPRMC,180759,A,4341.0733,N,07924.2498,W,9.72,189.0,120825,,A*76"
"$GPGGA,180759,4341.0733,N,07924.2498,W,1,12,0.8,6898.1,M,,,*12"
"$GPRMC,180800,A,4341.0707,N,07924.2506,W,9.72,191.3,120825,,A*7E"
"$GPGGA,180800,4341.0707,N,07924.2506,W,1,10,1.4,6898.1,M,,,*1F"
"$GPRMC,180801,A,4341.0681,N,07924.2515,W,9.72,194.8,120825,,A*7C"
"$GPGGA,180801,4341.0681,N,07924.2515,W,1,6,1.7,6898.1,M,,,*27"
"$GPRMC,180802,A,4341.0654,N,07924.2523,W,9.72,191.3,120825,,A*7C"
"$GPGGA,180802,4341.0654,N,07924.2523,W,1,10,1.8,6898.1,M,,,*11"
"$GPRMC,180803,A,4341.0628,N,07924.2531,W,9.72,193.2,120825,,A*76"
"$GPGGA,180803,4341.0628,N,07924.2531,W,1,12,1.7,6898.1,M,,,*15"
"$GPRMC,180804,A,4341.0601,N,07924.2537,W,9.72,189.4,120825,,A*71"
"$GPGGA,180804,4341.0601,N,07924.2537,W,1,8,1.6,6898.1,M,,,*25"
"$GPRMC,180805,A,4341.0575,N,07924.2543,W,9.72,188.3,120825,,A*75"
"$GPGGA,180805,4341.0575,N,07924.2543,W,1,8,1.1,6898.1,M,,,*20"
"$GPRMC,180806,A,4341.0548,N,07924.2545,W,9.72,184.6,120825,,A*77"
"$GPGGA,180806,4341.0548,N,07924.2545,W,1,6,1.9,6898.1,M,,,*2D"
"$GPRMC,180807,A,4341.0521,N,07924.2547,W,9.72,182.6,120825,,A*7D"
"$GPGGA,180807,4341.0521,N,07924.2547,W,1,12,1.8,6898.1,M,,,*15"
"$GPRMC,180808,A,4341.0494,N,07924.2548,W,9.72,182.1,120825,,A*75"
"$GPGGA,180808,4341.0494,N,07924.2548,W,1,12,2.0,6898.1,M,,,*11"
"$GPRMC,180809,A,4341.0467,N,07924.2551,W,9.72,184.5,120825,,A*72"
"$GPGGA,180809,4341.0467,N,07924.2551,W,1,10,2.4,6898.1,M,,,*12"
