raw_nmea
"$GPRMC,180034,A,4798.6996,N,-8184.838,W,0.97,114.0,120825,,A*5F"
"$GPGGA,180034,4798.6996,N,-8184.838,W,0,7,1.7,0.0,M,,,*38"
"$GPRMC,180035,A,4798.6996,N,-8184.8373,W,0.97,95.6,120825,,A*5C"
"$GPGGA,180035,4798.6996,N,-8184.8373,W,0,3,1.0,0.0,M,,,*06"
"$GPRMC,180036,A,4798.6992,N,-8184.8368,W,0.97,115.7,120825,,A*69"
"$GPGGA,180036,4798.6992,N,-8184.8368,W,0,7,1.4,0.0,M,,,*0B"
"$GPRMC,180037,A,4798.6992,N,-8184.8373,W,0.97,250.1,120825,,A*66"
"$GPGGA,180037,4798.6992,N,-8184.8373,W,0,3,1.9,0.0,M,,,*09"
"$GPRMC,180038,A,4798.6989,N,-8184.8368,W,0.97,127.6,120825,,A*6D"
"$GPGGA,180038,4798.6989,N,-8184.8368,W,0,5,2.1,0.0,M,,,*0B"
"$GPRMC,180039,A,4798.6986,N,-8184.8363,W,0.97,125.5,120825,,A*69"
"$GPGGA,180039,4798.6986,N,-8184.8363,W,1,11,0.9,1.8,M,,,*39"
"$GPRMC,180040,A,4798.6984,N,-8184.8358,W,0.97,128.1,120825,,A*64"
"$GPGGA,180040,4798.6984,N,-8184.8358,W,1,11,2.5,5.4,M,,,*3B"
"$GPRMC,180041,A,4798.6981,N,-8184.8353,W,0.97,128.9,120825,,A*63"
"$GPGGA,180041,4798.6981,N,-8184.8353,W,1,12,2.0,11.0,M,,,*03"
"$GPRMC,180042,A,4798.6977,N,-8184.835,W,0.97,133.6,120825,,A*5F"
"$GPGGA,180042,4798.6977,N,-8184.835,W,1,10,1.8,18.5,M,,,*3F"
"$GPRMC,180043,A,4798.6974,N,-8184.8345,W,1.02,131.4,120825,,A*64"
"$GPGGA,180043,4798.6974,N,-8184.8345,W,1,7,2.2,27.9,M,,,*36"
"$GPRMC,180044,A,4798.6971,N,-8184.8338,W,1.24,134.2,120825,,A*6B"
"$GPGGA,180044,4798.6971,N,-8184.8338,W,1,7,1.5,39.4,M,,,*38"
"$GPRMC,180045,A,4798.6966,N,-8184.8331,W,1.46,132.5,120825,,A*60"
"$GPGGA,180045,4798.6966,N,-8184.8331,W,1,12,2.2,52.9,M,,,*06"
"$GPRMC,180046,A,4798.6961,N,-8184.8323,W,1.69,134.0,120825,,A*69"
"$GPGGA,180046,4798.6961,N,-8184.8323,W,1,7,2.2,68.6,M,,,*33"
"$GPRMC,180047,A,4798.6954,N,-8184.8315,W,1.92,137.3,120825,,A*6F"
"$GPGGA,180047,4798.6954,N,-8184.8315,W,1,8,2.0,86.4,M,,,*3E"
"$GPRMC,180048,A,4798.6947,N,-8184.8306,W,2.16,135.9,120825,,A*67"
"$GPGGA,180048,4798.6947,N,-8184.8306,W,1,8,1.3,106.4,M,,,*08"
"$GPRMC,180049,A,4798.6939,N,-8184.8295,W,2.41,134.9,120825,,A*67"
"$GPGGA,180049,4798.6939,N,-8184.8295,W,1,9,2.2,128.7,M,,,*07"
"$GPRMC,180050,A,4798.6931,N,-8184.8281,W,2.65,131.7,120825,,A*6F"
"$GPGGA,180050,4798.6931,N,-8184.8281,W,1,8,1.8,153.3,M,,,*02"
"$GPRMC,180051,A,4798.6921,N,-8184.827,W,2.91,136.6,120825,,A*5C"
"$GPGGA,180051,4798.6921,N,-8184.827,W,1,9,0.8,180.2,M,,,*33"
"$GPRMC,180052,A,4798.6911,N,-8184.8255,W,3.16,132.9,120825,,A*6E"
"$GPGGA,180052,4798.6911,N,-8184.8255,W,1,10,1.8,209.5,M,,,*38"
"$GPRMC,180053,A,4798.6899,N,-8184.824,W,3.43,136.1,120825,,A*56"
"$GPGGA,180053,4798.6899,N,-8184.824,W,1,7,2.0,241.2,M,,,*3A"
"$GPRMC,180054,A,4798.6887,N,-8184.8221,W,3.69,132.2,120825,,A*66"
"$GPGGA,180054,4798.6887,N,-8184.8221,W,1,6,1.1,275.4,M,,,*07"
"$GPRMC,180055,A,4798.6876,N,-8184.8203,W,3.97,130.4,120825,,A*6C"
"$GPGGA,180055,4798.6876,N,-8184.8203,W,1,10,1.2,312.1,M,,,*39"
"$GPRMC,180056,A,4798.6864,N,-8184.8183,W,4.24,131.6,120825,,A*6B"
"$GPGGA,180056,4798.6864,N,-8184.8183,W,1,6,0.8,351.4,M,,,*0C"
"$GPRMC,180057,A,4798.6851,N,-8184.816,W,4.52,128.5,120825,,A*5B"
"$GPGGA,180057,4798.6851,N,-8184.816,W,1,9,1.7,393.3,M,,,*3E"
"$GPRMC,180058,A,4798.6836,N,-8184.8136,W,4.81,130.3,120825,,A*67"
"$GPGGA,180058,4798.6836,N,-8184.8136,W,1,12,2.1,437.9,M,,,*3F"
"$GPRMC,180059,A,4798.6821,N,-8184.8111,W,5.10,129.7,120825,,A*60"
"$GPGGA,180059,4798.6821,N,-8184.8111,W,1,7,0.8,485.1,M,,,*03"
"$GPRMC,180100,A,4798.6806,N,-8184.8085,W,5.40,129.1,120825,,A*67"
"$GPGGA,180100,4798.6806,N,-8184.8085,W,1,6,2.4,535.1,M,,,*02"
"$GPRMC,180101,A,4798.6787,N,-8184.8058,W,5.70,133.5,120825,,A*6C"
"$GPGGA,180101,4798.6787,N,-8184.8058,W,1,12,1.2,587.9,M,,,*34"
"$GPRMC,180102,A,4798.6767,N,-8184.8031,W,6.01,135.2,120825,,A*6A"
"$GPGGA,180102,4798.6767,N,-8184.8031,W,1,8,2.4,643.5,M,,,*0F"
"$GPRMC,180103,A,4798.6746,N,-8184.8003,W,6.32,136.7,120825,,A*6F"
"$GPGGA,180103,4798.6746,N,-8184.8003,W,1,7,2.4,702.0,M,,,*02"
"$GPRMC,180104,A,4798.6722,N,-8184.7976,W,6.63,140.2,120825,,A*6E"
"$GPGGA,180104,4798.6722,N,-8184.7976,W,1,11,2.3,763.4,M,,,*30"
"$GPRMC,180105,A,4798.6699,N,-8184.7945,W,6.95,135.9,120825,,A*6E"
"$GPGGA,180105,4798.6699,N,-8184.7945,W,1,11,0.8,827.8,M,,,*3A"
"$GPRMC,180106,A,4798.6676,N,-8184.7911,W,7.28,132.8,120825,,A*6C"
"$GPGGA,180106,4798.6676,N,-8184.7911,W,1,12,2.2,895.2,M,,,*31"
"$GPRMC,180107,A,4798.6654,N,-8184.7873,W,7.61,129.4,120825,,A*63"
"$GPGGA,180107,4798.6654,N,-8184.7873,W,1,6,1.8,965.7,M,,,*02"
"$GPRMC,180108,A,4798.6631,N,-8184.7835,W,7.95,130.6,120825,,A*6C"
"$GPGGA,180108,4798.6631,N,-8184.7835,W,1,7,1.0,1039.3,M,,,*30"
"$GPRMC,180109,A,4798.6606,N,-8184.7795,W,8.29,130.7,120825,,A*65"
"$GPGGA,180109,4798.6606,N,-8184.7795,W,1,10,0.9,1116.0,M,,,*01"
"$GPRMC,180110,A,4798.6577,N,-8184.7755,W,8.63,133.3,120825,,A*6D"
"$GPGGA,180110,4798.6577,N,-8184.7755,W,1,9,2.3,1195.9,M,,,*32"
"$GPRMC,180111,A,4798.6547,N,-8184.7716,W,8.98,137.4,120825,,A*6F"
"$GPGGA,180111,4798.6547,N,-8184.7716,W,1,10,2.0,1279.1,M,,,*05"
"$GPRMC,180112,A,4798.6514,N,-8184.7676,W,9.34,139.1,120825,,A*61"
"$GPGGA,180112,4798.6514,N,-8184.7676,W,1,11,1.8,1365.5,M,,,*05"
"$GPRMC,180113,A,4798.6481,N,-8184.7638,W,9.69,140.8,120825,,A*68"
"$GPGGA,180113,4798.6481,N,-8184.7638,W,1,8,1.4,1455.3,M,,,*35"
"$GPRMC,180114,A,4798.6444,N,-8184.7598,W,10.06,142.2,120825,,A*56"
"$GPGGA,180114,4798.6444,N,-8184.7598,W,1,9,2.1,1548.5,M,,,*3E"
"$GPRMC,180115,A,4798.6407,N,-8184.7555,W,10.43,139.8,120825,,A*56"
"$GPGGA,180115,4798.6407,N,-8184.7555,W,1,10,2.0,1645.0,M,,,*0B"
"$GPRMC,180116,A,4798.6369,N,-8184.751,W,10.80,138.4,120825,,A*69"
"$GPGGA,180116,4798.6369,N,-8184.751,W,1,7,1.6,1745.1,M,,,*05"
"$GPRMC,180117,A,4798.6334,N,-8184.7458,W,11.18,133.5,120825,,A*57"
"$GPGGA,180117,4798.6334,N,-8184.7458,W,1,6,1.8,1848.6,M,,,*3B"
"$GPRMC,180118,A,4798.6294,N,-8184.7406,W,11.57,136.9,120825,,A*5A"
"$GPGGA,180118,4798.6294,N,-8184.7406,W,1,6,1.1,1955.7,M,,,*31"
"$GPRMC,180119,A,4798.6254,N,-8184.736,W,11.54,139.8,120825,,A*6D"
"$GPGGA,180119,4798.6254,N,-8184.736,W,1,10,1.7,2062.5,M,,,*36"
"$GPRMC,180120,A,4798.6214,N,-8184.7311,W,11.51,139.5,120825,,A*5D"
"$GPGGA,180120,4798.6214,N,-8184.7311,W,1,7,1.4,2169.1,M,,,*35"
"$GPRMC,180121,A,4798.6171,N,-8184.7266,W,11.48,142.8,120825,,A*54"
"$GPGGA,180121,4798.6171,N,-8184.7266,W,1,6,1.6,2275.4,M,,,*3D"
"$GPRMC,180122,A,4798.6131,N,-8184.722,W,11.45,139.4,120825,,A*6C"
"$GPGGA,180122,4798.6131,N,-8184.722,W,1,9,1.1,2381.4,M,,,*0A"
"$GPRMC,180123,A,4798.6092,N,-8184.717,W,11.42,136.6,120825,,A*69"
"$GPGGA,180123,4798.6092,N,-8184.717,W,1,9,1.7,2487.2,M,,,*04"
"$GPRMC,180124,A,4798.6056,N,-8184.7116,W,11.39,134.2,120825,,A*5C"
"$GPGGA,180124,4798.6056,N,-8184.7116,W,1,6,2.3,2592.6,M,,,*32"
"$GPRMC,180125,A,4798.6019,N,-8184.7066,W,11.36,135.5,120825,,A*59"
"$GPGGA,180125,4798.6019,N,-8184.7066,W,1,8,1.5,2697.8,M,,,*3D"
"$GPRMC,180126,A,4798.5981,N,-8184.7016,W,11.33,136.7,120825,,A*52"
"$GPGGA,180126,4798.5981,N,-8184.7016,W,1,12,0.8,2802.8,M,,,*07"
"$GPRMC,180127,A,4798.5941,N,-8184.6968,W,11.30,138.2,120825,,A*56"
"$GPGGA,180127,4798.5941,N,-8184.6968,W,1,9,2.0,2907.5,M,,,*32"
"$GPRMC,180128,A,4798.5902,N,-8184.6921,W,11.27,139.3,120825,,A*55"
"$GPGGA,180128,4798.5902,N,-8184.6921,W,1,12,1.6,3011.9,M,,,*0B"
"$GPRMC,180129,A,4798.5866,N,-8184.6871,W,11.25,135.6,120825,,A*58"
"$GPGGA,180129,4798.5866,N,-8184.6871,W,1,11,1.0,3116.0,M,,,*07"
"$GPRMC,180130,A,4798.5826,N,-8184.6823,W,11.22,137.8,120825,,A*58"
"$GPGGA,180130,4798.5826,N,-8184.6823,W,1,10,1.2,3219.8,M,,,*0B"
"$GPRMC,180131,A,4798.5789,N,-8184.6773,W,11.19,136.5,120825,,A*5D"
"$GPGGA,180131,4798.5789,N,-8184.6773,W,1,11,2.4,3323.4,M,,,*0A"
"$GPRMC,180132,A,4798.5751,N,-8184.6725,W,11.16,136.6,120825,,A*54"
"$GPGGA,180132,4798.5751,N,-8184.6725,W,1,9,1.5,3426.8,M,,,*3A"
"$GPRMC,180133,A,4798.5716,N,-8184.6673,W,11.13,133.6,120825,,A*54"
"$GPGGA,180133,4798.5716,N,-8184.6673,W,1,7,1.6,3529.8,M,,,*39"
"$GPRMC,180134,A,4798.5682,N,-8184.662,W,11.10,130.4,120825,,A*6B"
"$GPGGA,180134,4798.5682,N,-8184.662,W,1,9,1.9,3632.6,M,,,*02"
"$GPRMC,180135,A,4798.5652,N,-8184.6563,W,11.07,127.4,120825,,A*53"
"$GPGGA,180135,4798.5652,N,-8184.6563,W,1,6,1.8,3735.1,M,,,*35"
"$GPRMC,180136,A,4798.5617,N,-8184.651,W,11.04,131.3,120825,,A*66"
"$GPGGA,180136,4798.5617,N,-8184.651,W,1,11,2.3,3837.3,M,,,*32"
"$GPRMC,180137,A,4798.5584,N,-8184.6458,W,11.01,132.7,120825,,A*51"
"$GPGGA,180137,4798.5584,N,-8184.6458,W,1,10,0.9,3939.3,M,,,*01"
"$GPRMC,180138,A,4798.5546,N,-8184.641,W,10.98,136.8,120825,,A*66"
"$GPGGA,180138,4798.5546,N,-8184.641,W,1,8,1.3,4041.0,M,,,*0C"
"$GPRMC,180139,A,4798.5507,N,-8184.6366,W,10.95,141.3,120825,,A*52"
"$GPGGA,180139,4798.5507,N,-8184.6366,W,1,6,1.4,4142.4,M,,,*31"
"$GPRMC,180140,A,4798.5471,N,-8184.6318,W,10.92,137.2,120825,,A*52"
"$GPGGA,180140,4798.5471,N,-8184.6318,W,1,12,1.7,4243.6,M,,,*00"
"$GPRMC,180141,A,4798.5432,N,-8184.6273,W,10.90,138.4,120825,,A*53"
"$GPGGA,180141,4798.5432,N,-8184.6273,W,1,12,1.9,4344.5,M,,,*01"
"$GPRMC,180142,A,4798.5394,N,-8184.6228,W,10.87,140.9,120825,,A*51"
"$GPGGA,180142,4798.5394,N,-8184.6228,W,1,12,1.3,4445.1,M,,,*0F"
"$GPRMC,180143,A,4798.5354,N,-8184.6186,W,10.84,141.9,120825,,A*59"
"$GPGGA,180143,4798.5354,N,-8184.6186,W,1,11,0.9,4545.5,M,,,*08"
"$GPRMC,180144,A,4798.5314,N,-8184.6145,W,10.81,142.4,120825,,A*5E"
"$GPGGA,180144,4798.5314,N,-8184.6145,W,1,10,1.6,4645.5,M,,,*08"
"$GPRMC,180145,A,4798.5277,N,-8184.6098,W,10.78,138.7,120825,,A*52"
"$GPGGA,180145,4798.5277,N,-8184.6098,W,1,12,1.2,4745.3,M,,,*0D"
"$GPRMC,180146,A,4798.5239,N,-8184.6055,W,10.75,139.9,120825,,A*58"
"$GPGGA,180146,4798.5239,N,-8184.6055,W,1,10,1.5,4844.9,M,,,*04"
"$GPRMC,180147,A,4798.5199,N,-8184.6013,W,10.72,142.2,120825,,A*52"
"$GPGGA,180147,4798.5199,N,-8184.6013,W,1,8,2.3,4944.2,M,,,*38"
"$GPRMC,180148,A,4798.5159,N,-8184.5975,W,10.69,146.4,120825,,A*53"
"$GPGGA,180148,4798.5159,N,-8184.5975,W,1,9,2.3,5043.2,M,,,*3F"
"$GPRMC,180149,A,4798.5117,N,-8184.5936,W,10.66,146.0,120825,,A*54"
"$GPGGA,180149,4798.5117,N,-8184.5936,W,1,12,1.8,5141.9,M,,,*09"
"$GPRMC,180150,A,4798.5076,N,-8184.5901,W,10.63,148.4,120825,,A*51"
"$GPGGA,180150,4798.5076,N,-8184.5901,W,1,10,1.5,5240.3,M,,,*04"
"$GPRMC,180151,A,4798.5036,N,-8184.5863,W,10.60,146.8,120825,,A*50"
"$GPGGA,180151,4798.5036,N,-8184.5863,W,1,11,2.0,5338.5,M,,,*0B"
"$GPRMC,180152,A,4798.4996,N,-8184.5823,W,10.57,143.7,120825,,A*5B"
"$GPGGA,180152,4798.4996,N,-8184.5823,W,1,6,2.2,5436.5,M,,,*33"
"$GPRMC,180153,A,4798.4957,N,-8184.578,W,10.55,140.0,120825,,A*67"
"$GPGGA,180153,4798.4957,N,-8184.578,W,1,9,1.4,5534.1,M,,,*04"
"$GPRMC,180154,A,4798.4922,N,-8184.5735,W,10.45,136.8,120825,,A*54"
"$GPGGA,180154,4798.4922,N,-8184.5735,W,1,8,1.2,5630.9,M,,,*37"
"$GPRMC,180155,A,4798.4886,N,-8184.5693,W,10.35,140.9,120825,,A*50"
"$GPGGA,180155,4798.4886,N,-8184.5693,W,1,7,1.3,5726.7,M,,,*32"
"$GPRMC,180156,A,4798.4849,N,-8184.5651,W,10.25,141.6,120825,,A*51"
"$GPGGA,180156,4798.4849,N,-8184.5651,W,1,6,1.6,5821.7,M,,,*30"
"$GPRMC,180157,A,4798.4809,N,-8184.5616,W,10.16,145.9,120825,,A*5C"
"$GPGGA,180157,4798.4809,N,-8184.5616,W,1,11,1.5,5915.7,M,,,*05"
"$GPRMC,180158,A,4798.4771,N,-8184.558,W,10.06,146.6,120825,,A*62"
"$GPGGA,180158,4798.4771,N,-8184.558,W,1,7,2.4,6008.9,M,,,*0B"
"$GPRMC,180159,A,4798.4734,N,-8184.5543,W,9.96,144.0,120825,,A*68"
"$GPGGA,180159,4798.4734,N,-8184.5543,W,1,9,1.3,6101.1,M,,,*3E"
"$GPRMC,180200,A,4798.4699,N,-8184.5501,W,9.87,139.3,120825,,A*6E"
"$GPGGA,180200,4798.4699,N,-8184.5501,W,1,7,2.2,6192.5,M,,,*33"
"$GPRMC,180201,A,4798.4664,N,-8184.5465,W,9.77,143.0,120825,,A*6F"
"$GPGGA,180201,4798.4664,N,-8184.5465,W,1,10,1.9,6282.9,M,,,*03"
"$GPRMC,180202,A,4798.4629,N,-8184.5425,W,9.67,141.2,120825,,A*60"
"$GPGGA,180202,4798.4629,N,-8184.5425,W,1,10,2.1,6372.5,M,,,*04"
"$GPRMC,180203,A,4798.4596,N,-8184.5385,W,9.57,137.4,120825,,A*6F"
"$GPGGA,180203,4798.4596,N,-8184.5385,W,1,11,1.0,6461.1,M,,,*0D"
"$GPRMC,180204,A,4798.4561,N,-8184.5346,W,9.48,142.3,120825,,A*64"
"$GPGGA,180204,4798.4561,N,-8184.5346,W,1,6,1.1,6548.9,M,,,*38"
"$GPRMC,180205,A,4798.4527,N,-8184.5308,W,9.38,139.8,120825,,A*6D"
"$GPGGA,180205,4798.4527,N,-8184.5308,W,1,11,2.3,6635.7,M,,,*01"
"$GPRMC,180206,A,4798.4494,N,-8184.5273,W,9.28,143.2,120825,,A*6C"
"$GPGGA,180206,4798.4494,N,-8184.5273,W,1,6,1.8,6721.7,M,,,*3C"
"$GPRMC,180207,A,4798.4462,N,-8184.5233,W,9.18,138.4,120825,,A*69"
"$GPGGA,180207,4798.4462,N,-8184.5233,W,1,10,1.6,6806.7,M,,,*03"
"$GPRMC,180208,A,4798.4431,N,-8184.5196,W,9.09,139.7,120825,,A*6E"
"$GPGGA,180208,4798.4431,N,-8184.5196,W,1,11,1.4,6890.9,M,,,*04"
"$GPRMC,180209,A,4798.4399,N,-8184.5156,W,8.99,136.6,120825,,A*60"
"$GPGGA,180209,4798.4399,N,-8184.5156,W,1,12,1.5,6974.1,M,,,*0D"
"$GPRMC,180210,A,4798.4367,N,-8184.5121,W,8.89,140.9,120825,,A*66"
"$GPGGA,180210,4798.4367,N,-8184.5121,W,1,7,1.0,7056.5,M,,,*39"
"$GPRMC,180211,A,4798.4336,N,-8184.5085,W,8.80,140.6,120825,,A*6A"
"$GPGGA,180211,4798.4336,N,-8184.5085,W,1,12,1.0,7137.9,M,,,*0D"
"$GPRMC,180212,A,4798.4307,N,-8184.5046,W,8.70,136.4,120825,,A*68"
"$GPGGA,180212,4798.4307,N,-8184.5046,W,1,9,2.5,7218.5,M,,,*3D"
"$GPRMC,180213,A,4798.4276,N,-8184.5013,W,8.60,140.9,120825,,A*63"
"$GPGGA,180213,4798.4276,N,-8184.5013,W,1,6,1.9,7298.1,M,,,*37"
"$GPRMC,180214,A,4798.4246,N,-8184.498,W,8.50,142.9,120825,,A*54"
"$GPGGA,180214,4798.4246,N,-8184.498,W,1,7,2.1,7296.1,M,,,*05"
"$GPRMC,180215,A,4798.4214,N,-8184.4948,W,8.41,144.1,120825,,A*68"
"$GPGGA,180215,4798.4214,N,-8184.4948,W,1,10,1.0,7294.1,M,,,*01"
"$GPRMC,180216,A,4798.4182,N,-8184.4916,W,8.31,143.4,120825,,A*69"
"$GPGGA,180216,4798.4182,N,-8184.4916,W,1,11,2.4,7292.1,M,,,*05"
"$GPRMC,180217,A,4798.4154,N,-8184.4881,W,8.21,139.5,120825,,A*61"
"$GPGGA,180217,4798.4154,N,-8184.4881,W,1,9,1.5,7290.1,M,,,*39"
"$GPRMC,180218,A,4798.4127,N,-8184.4845,W,8.12,134.8,120825,,A*62"
"$GPGGA,180218,4798.4127,N,-8184.4845,W,1,10,1.0,7288.1,M,,,*0E"
"$GPRMC,180219,A,4798.4102,N,-8184.4806,W,8.02,131.1,120825,,A*6E"
"$GPGGA,180219,4798.4102,N,-8184.4806,W,1,8,1.2,7286.1,M,,,*3A"
"$GPRMC,180220,A,4798.4081,N,-8184.4766,W,7.92,128.2,120825,,A*6A"
"$GPGGA,180220,4798.4081,N,-8184.4766,W,1,10,1.8,7284.1,M,,,*02"
"$GPRMC,180221,A,4798.4056,N,-8184.473,W,7.82,133.1,120825,,A*5A"
"$GPGGA,180221,4798.4056,N,-8184.473,W,1,6,2.2,7282.1,M,,,*02"
"$GPRMC,180222,A,4798.4031,N,-8184.4695,W,7.73,133.2,120825,,A*6B"
"$GPGGA,180222,4798.4031,N,-8184.4695,W,1,7,1.0,7280.1,M,,,*3C"
"$GPRMC,180223,A,4798.4007,N,-8184.466,W,7.63,134.2,120825,,A*53"
"$GPGGA,180223,4798.4007,N,-8184.466,W,1,8,1.8,7278.1,M,,,*02"
"$GPRMC,180224,A,4798.3981,N,-8184.4628,W,7.53,139.1,120825,,A*65"
"$GPGGA,180224,4798.3981,N,-8184.4628,W,1,12,1.3,7276.1,M,,,*07"
"$GPRMC,180225,A,4798.3954,N,-8184.4598,W,7.44,142.3,120825,,A*6C"
"$GPGGA,180225,4798.3954,N,-8184.4598,W,1,11,2.5,7274.1,M,,,*02"
"$GPRMC,180226,A,4798.3927,N,-8184.457,W,7.34,141.0,120825,,A*5A"
"$GPGGA,180226,4798.3927,N,-8184.457,W,1,10,2.4,7272.1,M,,,*35"
"$GPRMC,180227,A,4798.3902,N,-8184.4538,W,7.24,137.4,120825,,A*64"
"$GPGGA,180227,4798.3902,N,-8184.4538,W,1,7,2.2,7270.1,M,,,*3D"
"$GPRMC,180228,A,4798.3881,N,-8184.4505,W,7.14,132.7,120825,,A*6A"
"$GPGGA,180228,4798.3881,N,-8184.4505,W,1,8,1.6,7268.1,M,,,*37"
"$GPRMC,180229,A,4798.3856,N,-8184.4473,W,7.05,136.2,120825,,A*60"
"$GPGGA,180229,4798.3856,N,-8184.4473,W,1,10,2.3,7266.1,M,,,*0D"
"$GPRMC,180230,A,4798.3836,N,-8184.444,W,6.95,131.6,120825,,A*55"
"$GPGGA,180230,4798.3836,N,-8184.444,W,1,12,1.8,7264.1,M,,,*3B"
"$GPRMC,180231,A,4798.3812,N,-8184.441,W,6.85,136.3,120825,,A*54"
"$GPGGA,180231,4798.3812,N,-8184.441,W,1,8,0.9,7262.1,M,,,*04"
"$GPRMC,180232,A,4798.3789,N,-8184.4381,W,6.75,138.4,120825,,A*63"
"$GPGGA,180232,4798.3789,N,-8184.4381,W,1,10,0.9,7260.1,M,,,*0E"
"$GPRMC,180233,A,4798.3767,N,-8184.4351,W,6.66,134.4,120825,,A*61"
"$GPGGA,180233,4798.3767,N,-8184.4351,W,1,10,1.4,7258.1,M,,,*05"
"$GPRMC,180234,A,4798.3734,N,-8184.431,W,9.72,139.0,120825,,A*56"
"$GPGGA,180234,4798.3734,N,-8184.431,W,1,6,2.2,7256.1,M,,,*0D"
"$GPRMC,180235,A,4798.3701,N,-8184.4266,W,9.72,136.4,120825,,A*6A"
"$GPGGA,180235,4798.3701,N,-8184.4266,W,1,12,2.4,7254.1,M,,,*0B"
"$GPRMC,180236,A,4798.3669,N,-8184.4223,W,9.72,135.2,120825,,A*62"
"$GPGGA,180236,4798.3669,N,-8184.4223,W,1,7,1.8,7252.1,M,,,*3B"
"$GPRMC,180237,A,4798.3637,N,-8184.418,W,9.72,135.4,120825,,A*54"
"$GPGGA,180237,4798.3637,N,-8184.418,W,1,9,2.4,7250.1,M,,,*08"
"$GPRMC,180238,A,4798.3604,N,-8184.4136,W,9.72,136.3,120825,,A*62"
"$GPGGA,180238,4798.3604,N,-8184.4136,W,1,8,1.2,7248.1,M,,,*37"
"$GPRMC,180239,A,4798.3574,N,-8184.4091,W,9.72,132.3,120825,,A*6F"
"$GPGGA,180239,4798.3574,N,-8184.4091,W,1,11,0.8,7246.1,M,,,*03"
"$GPRMC,180240,A,4798.3544,N,-8184.4046,W,9.72,133.7,120825,,A*6D"
"$GPGGA,180240,4798.3544,N,-8184.4046,W,1,12,2.5,7244.1,M,,,*0A"
"$GPRMC,180241,A,4798.3511,N,-8184.4003,W,9.72,136.0,120825,,A*6F"
"$GPGGA,180241,4798.3511,N,-8184.4003,W,1,12,1.4,7242.1,M,,,*0E"
"$GPRMC,180242,A,4798.3479,N,-8184.3958,W,9.72,135.0,120825,,A*60"
"$GPGGA,180242,4798.3479,N,-8184.3958,W,1,7,2.4,7240.1,M,,,*37"
"$GPRMC,180243,A,4798.3449,N,-8184.3913,W,9.72,131.7,120825,,A*6E"
"$GPGGA,180243,4798.3449,N,-8184.3913,W,1,10,1.8,7238.1,M,,,*0C"
"$GPRMC,180244,A,4798.3421,N,-8184.3865,W,9.72,129.8,120825,,A*61"
"$GPGGA,180244,4798.3421,N,-8184.3865,W,1,8,1.9,7236.1,M,,,*33"
"$GPRMC,180245,A,4798.3392,N,-8184.3816,W,9.72,129.0,120825,,A*63"
"$GPGGA,180245,4798.3392,N,-8184.3816,W,1,9,2.2,7234.1,M,,,*32"
"$GPRMC,180246,A,4798.3366,N,-8184.3766,W,9.72,125.8,120825,,A*67"
"$GPGGA,180246,4798.3366,N,-8184.3766,W,1,6,1.9,7232.1,M,,,*33"
"$GPRMC,180247,A,4798.3339,N,-8184.3716,W,9.72,127.0,120825,,A*61"
"$GPGGA,180247,4798.3339,N,-8184.3716,W,1,6,1.2,7230.1,M,,,*36"
"$GPRMC,180248,A,4798.3311,N,-8184.3668,W,9.72,129.0,120825,,A*62"
"$GPGGA,180248,4798.3311,N,-8184.3668,W,1,11,1.1,7228.1,M,,,*07"
"$GPRMC,180249,A,4798.3279,N,-8184.3623,W,9.72,133.7,120825,,A*6F"
"$GPGGA,180249,4798.3279,N,-8184.3623,W,1,12,1.7,7226.1,M,,,*0D"
"$GPRMC,180250,A,4798.3247,N,-8184.358,W,9.72,135.7,120825,,A*56"
"$GPGGA,180250,4798.3247,N,-8184.358,W,1,11,2.0,7224.1,M,,,*37"
"$GPRMC,180251,A,4798.3216,N,-8184.3536,W,9.72,135.4,120825,,A*6D"
"$GPGGA,180251,4798.3216,N,-8184.3536,W,1,9,1.2,7222.1,M,,,*31"
"$GPRMC,180252,A,4798.3182,N,-8184.3495,W,9.72,138.2,120825,,A*63"
"$GPGGA,180252,4798.3182,N,-8184.3495,W,1,10,1.1,7220.1,M,,,*0D"
"$GPRMC,180253,A,4798.3147,N,-8184.3456,W,9.72,140.9,120825,,A*60"
"$GPGGA,180253,4798.3147,N,-8184.3456,W,1,12,0.8,7218.1,M,,,*0B"
"$GPRMC,180254,A,4798.3111,N,-8184.3418,W,9.72,143.3,120825,,A*67"
"$GPGGA,180254,4798.3111,N,-8184.3418,W,1,11,1.0,7216.1,M,,,*01"
"$GPRMC,180255,A,4798.3074,N,-8184.3386,W,9.72,148.0,120825,,A*6C"
"$GPGGA,180255,4798.3074,N,-8184.3386,W,1,11,1.0,7214.1,M,,,*00"
"$GPRMC,180256,A,4798.3036,N,-8184.3353,W,9.72,148.7,120825,,A*66"
"$GPGGA,180256,4798.3036,N,-8184.3353,W,1,9,2.3,7212.1,M,,,*32"
"$GPRMC,180257,A,4798.2996,N,-8184.3321,W,9.72,149.4,120825,,A*62"
"$GPGGA,180257,4798.2996,N,-8184.3321,W,1,10,2.4,7210.1,M,,,*09"
"$GPRMC,180258,A,4798.2957,N,-8184.3288,W,9.72,148.1,120825,,A*66"
"$GPGGA,180258,4798.2957,N,-8184.3288,W,1,10,1.5,7208.1,M,,,*02"
"$GPRMC,180259,A,4798.2919,N,-8184.3258,W,9.72,150.3,120825,,A*6B"
"$GPGGA,180259,4798.2919,N,-8184.3258,W,1,10,1.5,7206.1,M,,,*0A"
"$GPRMC,180300,A,4798.2881,N,-8184.3226,W,9.72,149.1,120825,,A*65"
"$GPGGA,180300,4798.2881,N,-8184.3226,W,1,11,2.1,7204.1,M,,,*0A"
"$GPRMC,180301,A,4798.2841,N,-8184.3198,W,9.72,153.6,120825,,A*62"
"$GPGGA,180301,4798.2841,N,-8184.3198,W,1,7,2.0,7202.1,M,,,*31"
"$GPRMC,180302,A,4798.2801,N,-8184.3168,W,9.72,149.8,120825,,A*6F"
"$GPGGA,180302,4798.2801,N,-8184.3168,W,1,8,1.8,7200.1,M,,,*3F"
"$GPRMC,180303,A,4798.2764,N,-8184.3135,W,9.72,148.1,120825,,A*62"
"$GPGGA,180303,4798.2764,N,-8184.3135,W,1,8,2.3,7198.1,M,,,*30"
"$GPRMC,180304,A,4798.2727,N,-8184.3098,W,9.72,143.9,120825,,A*67"
"$GPGGA,180304,4798.2727,N,-8184.3098,W,1,11,2.2,7196.1,M,,,*01"
"$GPRMC,180305,A,4798.2692,N,-8184.3058,W,9.72,139.3,120825,,A*62"
"$GPGGA,180305,4798.2692,N,-8184.3058,W,1,11,1.1,7194.1,M,,,*01"
"$GPRMC,180306,A,4798.2661,N,-8184.3015,W,9.72,136.4,120825,,A*6C"
"$GPGGA,180306,4798.2661,N,-8184.3015,W,1,11,2.2,7192.1,M,,,*01"
"$GPRMC,180307,A,4798.2629,N,-8184.297,W,9.72,134.0,120825,,A*5C"
"$GPGGA,180307,4798.2629,N,-8184.297,W,1,10,1.1,7190.1,M,,,*34"
"$GPRMC,180308,A,4798.2599,N,-8184.2923,W,9.72,131.3,120825,,A*6B"
"$GPGGA,180308,4798.2599,N,-8184.2923,W,1,9,1.5,7188.1,M,,,*30"
"$GPRMC,180309,A,4798.2572,N,-8184.2875,W,9.72,127.6,120825,,A*6F"
"$GPGGA,180309,4798.2572,N,-8184.2875,W,1,7,1.7,7186.1,M,,,*34"
"$GPRMC,180310,A,4798.2546,N,-8184.2825,W,9.72,126.4,120825,,A*66"
"$GPGGA,180310,4798.2546,N,-8184.2825,W,1,6,2.4,7184.1,M,,,*3D"
"$GPRMC,180311,A,4798.2517,N,-8184.2776,W,9.72,129.2,120825,,A*63"
"$GPGGA,180311,4798.2517,N,-8184.2776,W,1,6,1.3,7182.1,M,,,*33"
"$GPRMC,180312,A,4798.2491,N,-8184.2726,W,9.72,127.2,120825,,A*64"
"$GPGGA,180312,4798.2491,N,-8184.2726,W,1,11,1.9,7180.1,M,,,*04"
"$GPRMC,180313,A,4798.2466,N,-8184.2675,W,9.72,123.8,120825,,A*64"
"$GPGGA,180313,4798.2466,N,-8184.2675,W,1,10,1.1,7178.1,M,,,*04"
"$GPRMC,180314,A,4798.2439,N,-8184.2623,W,9.72,124.4,120825,,A*61"
"$GPGGA,180314,4798.2439,N,-8184.2623,W,1,9,0.9,7176.1,M,,,*35"
"$GPRMC,180315,A,4798.2417,N,-8184.257,W,9.72,120.9,120825,,A*50"
"$GPGGA,180315,4798.2417,N,-8184.257,W,1,8,2.5,7174.1,M,,,*00"
"$GPRMC,180316,A,4798.2392,N,-8184.2518,W,9.72,123.4,120825,,A*69"
"$GPGGA,180316,4798.2392,N,-8184.2518,W,1,12,0.7,7172.1,M,,,*0A"
"$GPRMC,180317,A,4798.2364,N,-8184.247,W,9.72,127.7,120825,,A*59"
"$GPGGA,180317,4798.2364,N,-8184.247,W,1,11,2.3,7170.1,M,,,*3A"
"$GPRMC,180318,A,4798.2337,N,-8184.242,W,9.72,127.0,120825,,A*52"
"$GPGGA,180318,4798.2337,N,-8184.242,W,1,10,1.1,7168.1,M,,,*3F"
"$GPRMC,180319,A,4798.2311,N,-8184.237,W,9.72,126.0,120825,,A*54"
"$GPGGA,180319,4798.2311,N,-8184.237,W,1,11,1.8,7166.1,M,,,*3E"
"$GPRMC,180320,A,4798.2287,N,-8184.2316,W,9.72,122.2,120825,,A*66"
"$GPGGA,180320,4798.2287,N,-8184.2316,W,1,9,1.1,7164.1,M,,,*38"
"$GPRMC,180321,A,4798.2262,N,-8184.2265,W,9.72,124.1,120825,,A*6C"
"$GPGGA,180321,4798.2262,N,-8184.2265,W,1,11,0.9,7162.1,M,,,*01"
"$GPRMC,180322,A,4798.2236,N,-8184.2215,W,9.72,125.6,120825,,A*6F"
"$GPGGA,180322,4798.2236,N,-8184.2215,W,1,7,2.0,7160.1,M,,,*3A"
"$GPRMC,180323,A,4798.2207,N,-8184.2166,W,9.72,127.8,120825,,A*67"
"$GPGGA,180323,4798.2207,N,-8184.2166,W,1,6,1.8,7158.1,M,,,*3F"
"$GPRMC,180324,A,4798.2182,N,-8184.2115,W,9.72,125.6,120825,,A*66"
"$GPGGA,180324,4798.2182,N,-8184.2115,W,1,6,2.3,7156.1,M,,,*34"
"$GPRMC,180325,A,4798.2159,N,-8184.2061,W,9.72,120.9,120825,,A*69"
"$GPGGA,180325,4798.2159,N,-8184.2061,W,1,9,0.8,7154.1,M,,,*35"
"$GPRMC,180326,A,4798.2137,N,-8184.2008,W,9.72,119.5,120825,,A*6B"
"$GPGGA,180326,4798.2137,N,-8184.2008,W,1,6,1.5,7152.1,M,,,*34"
"$GPRMC,180327,A,4798.2117,N,-8184.1951,W,9.72,115.6,120825,,A*61"
"$GPGGA,180327,4798.2117,N,-8184.1951,W,1,11,0.8,7150.1,M,,,*09"
"$GPRMC,180328,A,4798.2097,N,-8184.1896,W,9.72,115.9,120825,,A*62"
"$GPGGA,180328,4798.2097,N,-8184.1896,W,1,12,2.2,7148.1,M,,,*07"
"$GPRMC,180329,A,4798.2077,N,-8184.1841,W,9.72,117.7,120825,,A*6B"
"$GPGGA,180329,4798.2077,N,-8184.1841,W,1,7,0.9,7146.1,M,,,*31"
"$GPRMC,180330,A,4798.2052,N,-8184.1788,W,9.72,122.4,120825,,A*6B"
"$GPGGA,180330,4798.2052,N,-8184.1788,W,1,6,0.8,7144.1,M,,,*36"
"$GPRMC,180331,A,4798.2031,N,-8184.1735,W,9.72,119.8,120825,,A*6D"
"$GPGGA,180331,4798.2031,N,-8184.1735,W,1,10,1.3,7142.1,M,,,*0F"
"$GPRMC,180332,A,4798.2012,N,-8184.1678,W,9.72,115.0,120825,,A*63"
"$GPGGA,180332,4798.2012,N,-8184.1678,W,1,10,2.1,7140.1,M,,,*06"
"$GPRMC,180333,A,4798.1991,N,-8184.1623,W,9.72,118.4,120825,,A*64"
"$GPGGA,180333,4798.1991,N,-8184.1623,W,1,10,1.6,7138.1,M,,,*03"
"$GPRMC,180334,A,4798.1966,N,-8184.1571,W,9.72,122.8,120825,,A*6A"
"$GPGGA,180334,4798.1966,N,-8184.1571,W,1,11,1.6,7136.1,M,,,*07"
"$GPRMC,180335,A,4798.1941,N,-8184.152,W,9.72,123.0,120825,,A*53"
"$GPGGA,180335,4798.1941,N,-8184.152,W,1,12,1.4,7134.1,M,,,*34"
"$GPRMC,180336,A,4798.1919,N,-8184.1466,W,9.72,120.7,120825,,A*6A"
"$GPGGA,180336,4798.1919,N,-8184.1466,W,1,8,1.8,7132.1,M,,,*38"
"$GPRMC,180337,A,4798.1897,N,-8184.1411,W,9.72,117.8,120825,,A*67"
"$GPGGA,180337,4798.1897,N,-8184.1411,W,1,7,1.0,7130.1,M,,,*3B"
"$GPRMC,180338,A,4798.1877,N,-8184.1356,W,9.72,117.4,120825,,A*6E"
"$GPGGA,180338,4798.1877,N,-8184.1356,W,1,7,1.5,7128.1,M,,,*32"
"$GPRMC,180339,A,4798.1856,N,-8184.1301,W,9.72,118.6,120825,,A*63"
"$GPGGA,180339,4798.1856,N,-8184.1301,W,1,10,1.6,7126.1,M,,,*09"
"$GPRMC,180340,A,4798.1832,N,-8184.1248,W,9.72,121.6,120825,,A*69"
"$GPGGA,180340,4798.1832,N,-8184.1248,W,1,10,2.4,7124.1,M,,,*0A"
"$GPRMC,180341,A,4798.1809,N,-8184.1195,W,9.72,121.7,120825,,A*62"
"$GPGGA,180341,4798.1809,N,-8184.1195,W,1,11,1.2,7122.1,M,,,*02"
"$GPRMC,180342,A,4798.1782,N,-8184.1145,W,9.72,126.2,120825,,A*62"
"$GPGGA,180342,4798.1782,N,-8184.1145,W,1,8,2.3,7120.1,M,,,*38"
"$GPRMC,180343,A,4798.1752,N,-8184.1098,W,9.72,131.2,120825,,A*69"
"$GPGGA,180343,4798.1752,N,-8184.1098,W,1,11,0.7,7118.1,M,,,*00"
"$GPRMC,180344,A,4798.1722,N,-8184.1051,W,9.72,131.9,120825,,A*67"
"$GPGGA,180344,4798.1722,N,-8184.1051,W,1,12,0.7,7116.1,M,,,*08"
"$GPRMC,180345,A,4798.1694,N,-8184.1003,W,9.72,128.5,120825,,A*69"
"$GPGGA,180345,4798.1694,N,-8184.1003,W,1,12,0.8,7114.1,M,,,*0F"
"$GPRMC,180346,A,4798.1669,N,-8184.0953,W,9.72,125.5,120825,,A*68"
"$GPGGA,180346,4798.1669,N,-8184.0953,W,1,11,0.8,7112.1,M,,,*06"
"$GPRMC,180347,A,4798.1642,N,-8184.0901,W,9.72,124.2,120825,,A*61"
"$GPGGA,180347,4798.1642,N,-8184.0901,W,1,11,0.9,7110.1,M,,,*0A"
"$GPRMC,180348,A,4798.1616,N,-8184.0853,W,9.72,127.9,120825,,A*61"
"$GPGGA,180348,4798.1616,N,-8184.0853,W,1,11,1.8,7108.1,M,,,*0B"
"$GPRMC,180349,A,4798.1589,N,-8184.0803,W,9.72,126.3,120825,,A*6B"
"$GPGGA,180349,4798.1589,N,-8184.0803,W,1,8,2.0,7106.1,M,,,*37"
"$GPRMC,180350,A,4798.1566,N,-8184.075,W,9.72,121.5,120825,,A*5A"
"$GPGGA,180350,4798.1566,N,-8184.075,W,1,11,1.2,7104.1,M,,,*3C"
"$GPRMC,180351,A,4798.1544,N,-8184.0695,W,9.72,118.1,120825,,A*6D"
"$GPGGA,180351,4798.1544,N,-8184.0695,W,1,8,0.8,7102.1,M,,,*30"
"$GPRMC,180352,A,4798.1522,N,-8184.064,W,9.72,119.0,120825,,A*56"
"$GPGGA,180352,4798.1522,N,-8184.064,W,1,7,0.9,7100.1,M,,,*07"
"$GPRMC,180353,A,4798.1502,N,-8184.0585,W,9.72,116.4,120825,,A*64"
"$GPGGA,180353,4798.1502,N,-8184.0585,W,1,12,0.7,7098.1,M,,,*04"
"$GPRMC,180354,A,4798.1481,N,-8184.0531,W,9.72,119.3,120825,,A*6E"
"$GPGGA,180354,4798.1481,N,-8184.0531,W,1,9,2.0,7096.1,M,,,*37"
"$GPRMC,180355,A,4798.1456,N,-8184.048,W,9.72,124.3,120825,,A*50"
"$GPGGA,180355,4798.1456,N,-8184.048,W,1,9,1.9,7094.1,M,,,*0F"
"$GPRMC,180356,A,4798.1429,N,-8184.043,W,9.72,125.7,120825,,A*55"
"$GPGGA,180356,4798.1429,N,-8184.043,W,1,10,2.0,7092.1,M,,,*3B"
"$GPRMC,180357,A,4798.1406,N,-8184.0376,W,9.72,121.4,120825,,A*6B"
"$GPGGA,180357,4798.1406,N,-8184.0376,W,1,12,1.9,7090.1,M,,,*08"
"$GPRMC,180358,A,4798.1381,N,-8184.0323,W,9.72,122.7,120825,,A*6C"
"$GPGGA,180358,4798.1381,N,-8184.0323,W,1,10,1.4,7088.1,M,,,*09"
"$GPRMC,180359,A,4798.1359,N,-8184.027,W,9.72,119.5,120825,,A*55"
"$GPGGA,180359,4798.1359,N,-8184.027,W,1,11,2.3,7086.1,M,,,*31"
"$GPRMC,180400,A,4798.1337,N,-8184.0216,W,9.72,120.1,120825,,A*68"
"$GPGGA,180400,4798.1337,N,-8184.0216,W,1,10,2.4,7084.1,M,,,*06"
"$GPRMC,180401,A,4798.1311,N,-8184.0165,W,9.72,124.1,120825,,A*6E"
"$GPGGA,180401,4798.1311,N,-8184.0165,W,1,11,1.4,7082.1,M,,,*00"
"$GPRMC,180402,A,4798.1287,N,-8184.0111,W,9.72,122.7,120825,,A*60"
"$GPGGA,180402,4798.1287,N,-8184.0111,W,1,8,1.5,7080.1,M,,,*35"
"$GPRMC,180403,A,4798.1264,N,-8184.006,W,9.72,122.1,120825,,A*5D"
"$GPGGA,180403,4798.1264,N,-8184.006,W,1,6,1.6,7078.1,M,,,*04"
"$GPRMC,180404,A,4798.1237,N,-8184.0008,W,9.72,124.5,120825,,A*60"
"$GPGGA,180404,4798.1237,N,-8184.0008,W,1,6,0.9,7076.1,M,,,*3B"
"$GPRMC,180405,A,4798.1211,N,-8183.9958,W,9.72,125.9,120825,,A*6A"
"$GPGGA,180405,4798.1211,N,-8183.9958,W,1,7,1.2,7074.1,M,,,*35"
"$GPRMC,180406,A,4798.1184,N,-8183.991,W,9.72,128.3,120825,,A*5D"
"$GPGGA,180406,4798.1184,N,-8183.991,W,1,9,1.1,7072.1,M,,,*0E"
"$GPRMC,180407,A,4798.1154,N,-8183.9861,W,9.72,130.7,120825,,A*6B"
"$GPGGA,180407,4798.1154,N,-8183.9861,W,1,11,1.1,7070.1,M,,,*0E"
"$GPRMC,180408,A,4798.1122,N,-8183.9818,W,9.72,134.4,120825,,A*6C"
"$GPGGA,180408,4798.1122,N,-8183.9818,W,1,11,1.4,7068.1,M,,,*02"
"$GPRMC,180409,A,4798.1089,N,-8183.9776,W,9.72,139.3,120825,,A*60"
"$GPGGA,180409,4798.1089,N,-8183.9776,W,1,10,0.8,7066.1,M,,,*06"
"$GPRMC,180410,A,4798.1057,N,-8183.9735,W,9.72,136.0,120825,,A*60"
"$GPGGA,180410,4798.1057,N,-8183.9735,W,1,7,1.4,7064.1,M,,,*33"
"$GPRMC,180411,A,4798.1024,N,-8183.9691,W,9.72,137.6,120825,,A*6D"
"$GPGGA,180411,4798.1024,N,-8183.9691,W,1,7,1.7,7062.1,M,,,*3C"
"$GPRMC,180412,A,4798.0991,N,-8183.965,W,9.72,136.1,120825,,A*53"
"$GPGGA,180412,4798.0991,N,-8183.965,W,1,9,1.3,7060.1,M,,,*0C"
"$GPRMC,180413,A,4798.0961,N,-8183.9603,W,9.72,131.6,120825,,A*6B"
"$GPGGA,180413,4798.0961,N,-8183.9603,W,1,9,0.7,7058.1,M,,,*3A"
"$GPRMC,180414,A,4798.0932,N,-8183.9556,W,9.72,131.2,120825,,A*6D"
"$GPGGA,180414,4798.0932,N,-8183.9556,W,1,7,1.9,7056.1,M,,,*37"
"$GPRMC,180415,A,4798.0902,N,-8183.951,W,9.72,131.6,120825,,A*59"
"$GPGGA,180415,4798.0902,N,-8183.951,W,1,11,1.5,7054.1,M,,,*3E"
"$GPRMC,180416,A,4798.0874,N,-8183.946,W,9.72,127.5,120825,,A*58"
"$GPGGA,180416,4798.0874,N,-8183.946,W,1,11,2.5,7052.1,M,,,*3E"
"$GPRMC,180417,A,4798.0847,N,-8183.941,W,9.72,126.6,120825,,A*5C"
"$GPGGA,180417,4798.0847,N,-8183.941,W,1,10,2.5,7050.1,M,,,*3B"
"$GPRMC,180418,A,4798.0817,N,-8183.9363,W,9.72,131.5,120825,,A*60"
"$GPGGA,180418,4798.0817,N,-8183.9363,W,1,8,2.2,7048.1,M,,,*35"
"$GPRMC,180419,A,4798.0787,N,-8183.9318,W,9.72,131.9,120825,,A*67"
"$GPGGA,180419,4798.0787,N,-8183.9318,W,1,12,1.6,7046.1,M,,,*0C"
"$GPRMC,180420,A,4798.0756,N,-8183.9275,W,9.72,136.0,120825,,A*65"
"$GPGGA,180420,4798.0756,N,-8183.9275,W,1,8,1.3,7044.1,M,,,*3C"
"$GPRMC,180421,A,4798.0721,N,-8183.9235,W,9.72,140.9,120825,,A*68"
"$GPGGA,180421,4798.0721,N,-8183.9235,W,1,11,0.8,7042.1,M,,,*0D"
"$GPRMC,180422,A,4798.0687,N,-8183.9193,W,9.72,138.1,120825,,A*6E"
"$GPGGA,180422,4798.0687,N,-8183.9193,W,1,11,0.7,7040.1,M,,,*01"
"$GPRMC,180423,A,4798.0654,N,-8183.9153,W,9.72,138.5,120825,,A*69"
"$GPGGA,180423,4798.0654,N,-8183.9153,W,1,6,1.4,7038.1,M,,,*39"
"$GPRMC,180424,A,4798.0621,N,-8183.911,W,9.72,136.3,120825,,A*53"
"$GPGGA,180424,4798.0621,N,-8183.911,W,1,8,1.7,7036.1,M,,,*08"
"$GPRMC,180425,A,4798.0589,N,-8183.9066,W,9.72,135.6,120825,,A*65"
"$GPGGA,180425,4798.0589,N,-8183.9066,W,1,10,2.0,7034.1,M,,,*07"
"$GPRMC,180426,A,4798.0557,N,-8183.9023,W,9.72,136.1,120825,,A*60"
"$GPGGA,180426,4798.0557,N,-8183.9023,W,1,12,2.1,7032.1,M,,,*03"
"$GPRMC,180427,A,4798.0524,N,-8183.8981,W,9.72,137.8,120825,,A*6D"
"$GPGGA,180427,4798.0524,N,-8183.8981,W,1,11,1.0,7030.1,M,,,*05"
"$GPRMC,180428,A,4798.0489,N,-8183.8941,W,9.72,140.1,120825,,A*61"
"$GPGGA,180428,4798.0489,N,-8183.8941,W,1,12,1.6,7028.1,M,,,*0C"
"$GPRMC,180429,A,4798.0456,N,-8183.8901,W,9.72,139.1,120825,,A*68"
"$GPGGA,180429,4798.0456,N,-8183.8901,W,1,11,1.0,7026.1,M,,,*00"
"$GPRMC,180430,A,4798.0419,N,-8183.8863,W,9.72,143.0,120825,,A*62"
"$GPGGA,180430,4798.0419,N,-8183.8863,W,1,6,2.5,7024.1,M,,,*34"
"$GPRMC,180431,A,4798.0384,N,-8183.8825,W,9.72,141.9,120825,,A*69"
"$GPGGA,180431,4798.0384,N,-8183.8825,W,1,10,1.5,7022.1,M,,,*06"
"$GPRMC,180432,A,4798.0349,N,-8183.8785,W,9.72,139.1,120825,,A*69"
"$GPGGA,180432,4798.0349,N,-8183.8785,W,1,6,2.4,7020.1,M,,,*36"
"$GPRMC,180433,A,4798.0317,N,-8183.8741,W,9.72,135.5,120825,,A*63"
"$GPGGA,180433,4798.0317,N,-8183.8741,W,1,12,1.9,7018.1,M,,,*04"
"$GPRMC,180434,A,4798.0284,N,-8183.8701,W,9.72,140.2,120825,,A*6E"
"$GPGGA,180434,4798.0284,N,-8183.8701,W,1,11,1.0,7016.1,M,,,*08"
"$GPRMC,180435,A,4798.0249,N,-8183.866,W,9.72,138.1,120825,,A*54"
"$GPGGA,180435,4798.0249,N,-8183.866,W,1,9,1.5,7014.1,M,,,*00"
"$GPRMC,180436,A,4798.0217,N,-8183.8616,W,9.72,136.2,120825,,A*60"
"$GPGGA,180436,4798.0217,N,-8183.8616,W,1,9,1.3,7012.1,M,,,*39"
"$GPRMC,180437,A,4798.0184,N,-8183.8576,W,9.72,138.6,120825,,A*67"
"$GPGGA,180437,4798.0184,N,-8183.8576,W,1,12,1.3,7010.1,M,,,*0C"
"$GPRMC,180438,A,4798.0149,N,-8183.8536,W,9.72,140.3,120825,,A*67"
"$GPGGA,180438,4798.0149,N,-8183.8536,W,1,11,1.2,7008.1,M,,,*0D"
"$GPRMC,180439,A,4798.0114,N,-8183.8498,W,9.72,142.7,120825,,A*6D"
"$GPGGA,180439,4798.0114,N,-8183.8498,W,1,9,1.7,7006.1,M,,,*33"
"$GPRMC,180440,A,4798.0077,N,-8183.8461,W,9.72,143.2,120825,,A*65"
"$GPGGA,180440,4798.0077,N,-8183.8461,W,1,10,1.3,7004.1,M,,,*01"
"$GPRMC,180441,A,4798.0041,N,-8183.8426,W,9.72,145.9,120825,,A*6F"
"$GPGGA,180441,4798.0041,N,-8183.8426,W,1,6,1.7,7002.1,M,,,*33"
"$GPRMC,180442,A,4798.0004,N,-8183.839,W,9.72,144.3,120825,,A*5C"
"$GPGGA,180442,4798.0004,N,-8183.839,W,1,12,2.4,7000.1,M,,,*3C"
"$GPRMC,180443,A,4797.9966,N,-8183.8358,W,9.72,148.4,120825,,A*69"
"$GPGGA,180443,4797.9966,N,-8183.8358,W,1,12,1.8,6998.1,M,,,*04"
"$GPRMC,180444,A,4797.9926,N,-8183.8328,W,9.72,151.9,120825,,A*68"
"$GPGGA,180444,4797.9926,N,-8183.8328,W,1,6,1.1,6996.1,M,,,*32"
"$GPRMC,180445,A,4797.9886,N,-8183.8303,W,9.72,155.7,120825,,A*61"
"$GPGGA,180445,4797.9886,N,-8183.8303,W,1,9,1.7,6994.1,M,,,*3A"
"$GPRMC,180446,A,4797.9844,N,-8183.8278,W,9.72,156.1,120825,,A*64"
"$GPGGA,180446,4797.9844,N,-8183.8278,W,1,11,2.3,6992.1,M,,,*02"
"$GPRMC,180447,A,4797.9802,N,-8183.8251,W,9.72,155.7,120825,,A*69"
"$GPGGA,180447,4797.9802,N,-8183.8251,W,1,8,2.1,6990.1,M,,,*32"
"$GPRMC,180448,A,4797.9762,N,-8183.8226,W,9.72,156.4,120825,,A*6F"
"$GPGGA,180448,4797.9762,N,-8183.8226,W,1,10,2.2,6988.1,M,,,*07"
"$GPRMC,180449,A,4797.9721,N,-8183.8203,W,9.72,157.2,120825,,A*69"
"$GPGGA,180449,4797.9721,N,-8183.8203,W,1,11,1.9,6986.1,M,,,*01"
"$GPRMC,180450,A,4797.9679,N,-8183.818,W,9.72,157.6,120825,,A*51"
"$GPGGA,180450,4797.9679,N,-8183.818,W,1,6,1.7,6984.1,M,,,*07"
"$GPRMC,180451,A,4797.9637,N,-8183.8155,W,9.72,155.7,120825,,A*61"
"$GPGGA,180451,4797.9637,N,-8183.8155,W,1,7,0.9,6982.1,M,,,*3C"
"$GPRMC,180452,A,4797.9596,N,-8183.813,W,9.72,157.4,120825,,A*58"
"$GPGGA,180452,4797.9596,N,-8183.813,W,1,10,1.5,6980.1,M,,,*3D"
"$GPRMC,180453,A,4797.9554,N,-8183.8106,W,9.72,158.5,120825,,A*6C"
"$GPGGA,180453,4797.9554,N,-8183.8106,W,1,9,1.2,6978.1,M,,,*3F"
"$GPRMC,180454,A,4797.9514,N,-8183.808,W,9.72,153.5,120825,,A*5B"
"$GPGGA,180454,4797.9514,N,-8183.808,W,1,7,2.3,6976.1,M,,,*01"
"$GPRMC,180455,A,4797.9474,N,-8183.8053,W,9.72,155.3,120825,,A*63"
"$GPGGA,180455,4797.9474,N,-8183.8053,W,1,11,2.1,6974.1,M,,,*0E"
"$GPRMC,180456,A,4797.9432,N,-8183.803,W,9.72,156.9,120825,,A*5E"
"$GPGGA,180456,4797.9432,N,-8183.803,W,1,9,1.7,6972.1,M,,,*00"
"$GPRMC,180457,A,4797.9389,N,-8183.801,W,9.72,161.6,120825,,A*51"
"$GPGGA,180457,4797.9389,N,-8183.801,W,1,8,1.9,6970.1,M,,,*09"
"$GPRMC,180458,A,4797.9347,N,-8183.7991,W,9.72,162.6,120825,,A*60"
"$GPGGA,180458,4797.9347,N,-8183.7991,W,1,7,2.4,6968.1,M,,,*33"
"$GPRMC,180459,A,4797.9304,N,-8183.7971,W,9.72,162.2,120825,,A*6C"
"$GPGGA,180459,4797.9304,N,-8183.7971,W,1,8,2.4,6966.1,M,,,*3A"
"$GPRMC,180500,A,4797.9261,N,-8183.7953,W,9.72,162.1,120825,,A*60"
"$GPGGA,180500,4797.9261,N,-8183.7953,W,1,7,1.2,6964.1,M,,,*3D"
"$GPRMC,180501,A,4797.9217,N,-8183.7938,W,9.72,165.6,120825,,A*6D"
"$GPGGA,180501,4797.9217,N,-8183.7938,W,1,10,1.2,6962.1,M,,,*00"
"$GPRMC,180502,A,4797.9174,N,-8183.7926,W,9.72,169.3,120825,,A*6E"
"$GPGGA,180502,4797.9174,N,-8183.7926,W,1,11,1.7,6960.1,M,,,*0C"
"$GPRMC,180503,A,4797.9129,N,-8183.7913,W,9.72,168.4,120825,,A*67"
"$GPGGA,180503,4797.9129,N,-8183.7913,W,1,10,2.3,6958.1,M,,,*0E"
"$GPRMC,180504,A,4797.9086,N,-8183.79,W,9.72,167.9,120825,,A*64"
"$GPGGA,180504,4797.9086,N,-8183.79,W,1,7,2.3,6956.1,M,,,*37"
"$GPRMC,180505,A,4797.9042,N,-8183.789,W,9.72,170.3,120825,,A*59"
"$GPGGA,180505,4797.9042,N,-8183.789,W,1,11,2.1,6954.1,M,,,*31"
"$GPRMC,180506,A,4797.8997,N,-8183.7878,W,9.72,168.7,120825,,A*61"
"$GPGGA,180506,4797.8997,N,-8183.7878,W,1,8,0.8,6952.1,M,,,*31"
"$GPRMC,180507,A,4797.8954,N,-8183.7863,W,9.72,166.3,120825,,A*6F"
"$GPGGA,180507,4797.8954,N,-8183.7863,W,1,8,2.3,6950.1,M,,,*3E"
"$GPRMC,180508,A,4797.8911,N,-8183.785,W,9.72,167.7,120825,,A*54"
"$GPGGA,180508,4797.8911,N,-8183.785,W,1,8,2.0,6948.1,M,,,*0A"
"$GPRMC,180509,A,4797.8866,N,-8183.7841,W,9.72,171.7,120825,,A*63"
"$GPGGA,180509,4797.8866,N,-8183.7841,W,1,6,2.4,6946.1,M,,,*3E"
"$GPRMC,180510,A,4797.8821,N,-8183.783,W,9.72,169.4,120825,,A*54"
"$GPGGA,180510,4797.8821,N,-8183.783,W,1,6,1.4,6944.1,M,,,*02"
"$GPRMC,180511,A,4797.8777,N,-8183.782,W,9.72,170.5,120825,,A*51"
"$GPGGA,180511,4797.8777,N,-8183.782,W,1,11,1.5,6942.1,M,,,*3F"
"$GPRMC,180512,A,4797.8732,N,-8183.7811,W,9.72,173.2,120825,,A*65"
"$GPGGA,180512,4797.8732,N,-8183.7811,W,1,6,0.9,6940.1,M,,,*36"
"$GPRMC,180513,A,4797.8687,N,-8183.7805,W,9.72,174.1,120825,,A*6A"
"$GPGGA,180513,4797.8687,N,-8183.7805,W,1,10,0.9,6938.1,M,,,*05"
"$GPRMC,180514,A,4797.8642,N,-8183.7801,W,9.72,176.1,120825,,A*62"
"$GPGGA,180514,4797.8642,N,-8183.7801,W,1,6,1.9,6936.1,M,,,*37"
"$GPRMC,180515,A,4797.8597,N,-8183.7798,W,9.72,177.8,120825,,A*6F"
"$GPGGA,180515,4797.8597,N,-8183.7798,W,1,8,2.3,6934.1,M,,,*37"
"$GPRMC,180516,A,4797.8554,N,-8183.7795,W,9.72,176.5,120825,,A*62"
"$GPGGA,180516,4797.8554,N,-8183.7795,W,1,9,2.4,6932.1,M,,,*36"
"$GPRMC,180517,A,4797.8509,N,-8183.7795,W,9.72,179.9,120825,,A*68"
"$GPGGA,180517,4797.8509,N,-8183.7795,W,1,9,2.3,6930.1,M,,,*3A"
"$GPRMC,180518,A,4797.8464,N,-8183.7795,W,9.72,179.7,120825,,A*63"
"$GPGGA,180518,4797.8464,N,-8183.7795,W,1,12,2.2,6928.1,M,,,*0D"
"$GPRMC,180519,A,4797.8419,N,-8183.779,W,9.72,175.7,120825,,A*51"
"$GPGGA,180519,4797.8419,N,-8183.779,W,1,11,2.3,6926.1,M,,,*3F"
"$GPRMC,180520,A,4797.8374,N,-8183.7783,W,9.72,173.9,120825,,A*6D"
"$GPGGA,180520,4797.8374,N,-8183.7783,W,1,10,1.9,6924.1,M,,,*01"
"$GPRMC,180521,A,4797.8329,N,-8183.7781,W,9.72,178.2,120825,,A*66"
"$GPGGA,180521,4797.8329,N,-8183.7781,W,1,6,1.7,6922.1,M,,,*35"
"$GPRMC,180522,A,4797.8284,N,-8183.7776,W,9.72,175.6,120825,,A*62"
"$GPGGA,180522,4797.8284,N,-8183.7776,W,1,7,2.0,6920.1,M,,,*3F"
"$GPRMC,180523,A,4797.8239,N,-8183.777,W,9.72,172.9,120825,,A*5B"
"$GPGGA,180523,4797.8239,N,-8183.777,W,1,9,2.3,6918.1,M,,,*08"
"$GPRMC,180524,A,4797.8196,N,-8183.7756,W,9.72,168.3,120825,,A*6F"
"$GPGGA,180524,4797.8196,N,-8183.7756,W,1,8,2.5,6916.1,M,,,*34"
"$GPRMC,180525,A,4797.8152,N,-8183.7741,W,9.72,165.3,120825,,A*6D"
"$GPGGA,180525,4797.8152,N,-8183.7741,W,1,6,2.1,6914.1,M,,,*33"
"$GPRMC,180526,A,4797.8111,N,-8183.772,W,9.72,160.8,120825,,A*50"
"$GPGGA,180526,4797.8111,N,-8183.772,W,1,7,1.1,6912.1,M,,,*04"
"$GPRMC,180527,A,4797.8067,N,-8183.7703,W,9.72,164.6,120825,,A*6A"
"$GPGGA,180527,4797.8067,N,-8183.7703,W,1,10,2.2,6910.1,M,,,*00"
"$GPRMC,180528,A,4797.8022,N,-8183.769,W,9.72,166.4,120825,,A*5F"
"$GPGGA,180528,4797.8022,N,-8183.769,W,1,6,2.1,6908.1,M,,,*08"
"$GPRMC,180529,A,4797.7979,N,-8183.7671,W,9.72,164.1,120825,,A*6E"
"$GPGGA,180529,4797.7979,N,-8183.7671,W,1,11,2.1,6906.1,M,,,*06"
"$GPRMC,180530,A,4797.7937,N,-8183.7653,W,9.72,163.1,120825,,A*6B"
"$GPGGA,180530,4797.7937,N,-8183.7653,W,1,11,1.6,6904.1,M,,,*02"
"$GPRMC,180531,A,4797.7894,N,-8183.7635,W,9.72,161.9,120825,,A*68"
"$GPGGA,180531,4797.7894,N,-8183.7635,W,1,9,1.7,6902.1,M,,,*35"
"$GPRMC,180532,A,4797.7851,N,-8183.7615,W,9.72,161.6,120825,,A*6F"
"$GPGGA,180532,4797.7851,N,-8183.7615,W,1,8,2.0,6900.1,M,,,*3A"
"$GPRMC,180533,A,4797.7809,N,-8183.7595,W,9.72,160.2,120825,,A*6D"
"$GPGGA,180533,4797.7809,N,-8183.7595,W,1,11,2.2,6898.1,M,,,*07"
"$GPRMC,180534,A,4797.7766,N,-8183.7578,W,9.72,164.8,120825,,A*61"
"$GPGGA,180534,4797.7766,N,-8183.7578,W,1,10,1.1,6898.1,M,,,*04"
"$GPRMC,180535,A,4797.7722,N,-8183.7561,W,9.72,164.6,120825,,A*66"
"$GPGGA,180535,4797.7722,N,-8183.7561,W,1,12,1.4,6898.1,M,,,*0A"
"$GPRMC,180536,A,4797.7681,N,-8183.754,W,9.72,160.6,120825,,A*5A"
"$GPGGA,180536,4797.7681,N,-8183.754,W,1,12,0.7,6898.1,M,,,*30"
"$GPRMC,180537,A,4797.7637,N,-8183.7521,W,9.72,162.3,120825,,A*66"
"$GPGGA,180537,4797.7637,N,-8183.7521,W,1,8,1.1,6898.1,M,,,*37"
"$GPRMC,180538,A,4797.7594,N,-8183.7505,W,9.72,164.5,120825,,A*65"
"$GPGGA,180538,4797.7594,N,-8183.7505,W,1,11,1.0,6898.1,M,,,*0D"
"$GPRMC,180539,A,4797.7551,N,-8183.7491,W,9.72,166.5,120825,,A*63"
"$GPGGA,180539,4797.7551,N,-8183.7491,W,1,7,1.0,6898.1,M,,,*3E"
"$GPRMC,180540,A,4797.7506,N,-8183.7478,W,9.72,169.1,120825,,A*63"
"$GPGGA,180540,4797.7506,N,-8183.7478,W,1,7,2.1,6898.1,M,,,*37"
"$GPRMC,180541,A,4797.7462,N,-8183.7468,W,9.72,169.7,120825,,A*66"
"$GPGGA,180541,4797.7462,N,-8183.7468,W,1,8,1.6,6898.1,M,,,*3F"
"$GPRMC,180542,A,4797.7417,N,-8183.746,W,9.72,172.5,120825,,A*57"
"$GPGGA,180542,4797.7417,N,-8183.746,W,1,11,1.2,6898.1,M,,,*3A"
"$GPRMC,180543,A,4797.7374,N,-8183.745,W,9.72,170.6,120825,,A*56"
"$GPGGA,180543,4797.7374,N,-8183.745,W,1,10,1.4,6898.1,M,,,*3D"
"$GPRMC,180544,A,4797.7329,N,-8183.7438,W,9.72,169.7,120825,,A*6E"
"$GPGGA,180544,4797.7329,N,-8183.7438,W,1,11,1.2,6898.1,M,,,*0B"
"$GPRMC,180545,A,4797.7286,N,-8183.7426,W,9.72,169.0,120825,,A*63"
"$GPGGA,180545,4797.7286,N,-8183.7426,W,1,9,1.2,6898.1,M,,,*38"
"$GPRMC,180546,A,4797.7241,N,-8183.7413,W,9.72,166.9,120825,,A*6B"
"$GPGGA,180546,4797.7241,N,-8183.7413,W,1,10,1.3,6898.1,M,,,*0F"
"$GPRMC,180547,A,4797.7197,N,-8183.7398,W,9.72,167.2,120825,,A*6C"
"$GPGGA,180547,4797.7197,N,-8183.7398,W,1,8,1.6,6898.1,M,,,*3E"
"$GPRMC,180548,A,4797.7154,N,-8183.7381,W,9.72,164.2,120825,,A*67"
"$GPGGA,180548,4797.7154,N,-8183.7381,W,1,10,2.3,6898.1,M,,,*09"
"$GPRMC,180549,A,4797.7112,N,-8183.7361,W,9.72,160.2,120825,,A*6E"
"$GPGGA,180549,4797.7112,N,-8183.7361,W,1,8,1.6,6898.1,M,,,*3B"
"$GPRMC,180550,A,4797.7069,N,-8183.7341,W,9.72,161.3,120825,,A*69"
"$GPGGA,180550,4797.7069,N,-8183.7341,W,1,7,1.5,6898.1,M,,,*30"
"$GPRMC,180551,A,4797.7027,N,-8183.7321,W,9.72,162.0,120825,,A*64"
"$GPGGA,180551,4797.7027,N,-8183.7321,W,1,8,1.0,6898.1,M,,,*37"
"$GPRMC,180552,A,4797.6984,N,-8183.7301,W,9.72,161.1,120825,,A*66"
"$GPGGA,180552,4797.6984,N,-8183.7301,W,1,12,2.2,6898.1,M,,,*0D"
"$GPRMC,180553,A,4797.6942,N,-8183.7281,W,9.72,161.8,120825,,A*6D"
"$GPGGA,180553,4797.6942,N,-8183.7281,W,1,8,1.8,6898.1,M,,,*3D"
"$GPRMC,180554,A,4797.6899,N,-8183.726,W,9.72,158.8,120825,,A*58"
"$GPGGA,180554,4797.6899,N,-8183.726,W,1,12,0.8,6898.1,M,,,*38"
"$GPRMC,180555,A,4797.6857,N,-8183.7241,W,9.72,163.4,120825,,A*6C"
"$GPGGA,180555,4797.6857,N,-8183.7241,W,1,7,2.3,6898.1,M,,,*35"
"$GPRMC,180556,A,4797.6814,N,-8183.7223,W,9.72,162.5,120825,,A*6C"
"$GPGGA,180556,4797.6814,N,-8183.7223,W,1,6,1.2,6898.1,M,,,*36"
"$GPRMC,180557,A,4797.6771,N,-8183.7203,W,9.72,160.7,120825,,A*63"
"$GPGGA,180557,4797.6771,N,-8183.7203,W,1,8,1.6,6898.1,M,,,*33"
"$GPRMC,180558,A,4797.6731,N,-8183.7178,W,9.72,156.7,120825,,A*62"
"$GPGGA,180558,4797.6731,N,-8183.7178,W,1,10,1.0,6898.1,M,,,*08"
"$GPRMC,180559,A,4797.6691,N,-8183.7148,W,9.72,151.9,120825,,A*62"
"$GPGGA,180559,4797.6691,N,-8183.7148,W,1,12,0.7,6898.1,M,,,*05"
"$GPRMC,180600,A,4797.6651,N,-8183.7121,W,9.72,153.9,120825,,A*6C"
"$GPGGA,180600,4797.6651,N,-8183.7121,W,1,8,2.5,6898.1,M,,,*32"
"$GPRMC,180601,A,4797.6611,N,-8183.7093,W,9.72,153.4,120825,,A*6C"
"$GPGGA,180601,4797.6611,N,-8183.7093,W,1,6,1.7,6898.1,M,,,*30"
"$GPRMC,180602,A,4797.6569,N,-8183.7068,W,9.72,155.5,120825,,A*60"
"$GPGGA,180602,4797.6569,N,-8183.7068,W,1,6,1.3,6898.1,M,,,*3F"
"$GPRMC,180603,A,4797.6529,N,-8183.7043,W,9.72,155.7,120825,,A*6E"
"$GPGGA,180603,4797.6529,N,-8183.7043,W,1,10,2.2,6898.1,M,,,*06"
"$GPRMC,180604,A,4797.6487,N,-8183.7016,W,9.72,155.4,120825,,A*6F"
"$GPGGA,180604,4797.6487,N,-8183.7016,W,1,6,1.2,6898.1,M,,,*30"
"$GPRMC,180605,A,4797.6446,N,-8183.6991,W,9.72,156.8,120825,,A*6B"
"$GPGGA,180605,4797.6446,N,-8183.6991,W,1,11,0.8,6898.1,M,,,*06"
"$GPRMC,180606,A,4797.6404,N,-8183.6971,W,9.72,160.8,120825,,A*65"
"$GPGGA,180606,4797.6404,N,-8183.6971,W,1,9,0.7,6898.1,M,,,*3B"
"$GPRMC,180607,A,4797.6361,N,-8183.6955,W,9.72,165.0,120825,,A*6B"
"$GPGGA,180607,4797.6361,N,-8183.6955,W,1,7,0.8,6898.1,M,,,*39"
"$GPRMC,180608,A,4797.6316,N,-8183.6943,W,9.72,168.2,120825,,A*6C"
"$GPGGA,180608,4797.6316,N,-8183.6943,W,1,8,2.2,6898.1,M,,,*36"
"$GPRMC,180609,A,4797.6272,N,-8183.6935,W,9.72,172.7,120825,,A*61"
"$GPGGA,180609,4797.6272,N,-8183.6935,W,1,7,1.8,6898.1,M,,,*33"
"$GPRMC,180610,A,4797.6227,N,-8183.6923,W,9.72,169.5,120825,,A*66"
"$GPGGA,180610,4797.6227,N,-8183.6923,W,1,12,2.0,6898.1,M,,,*03"
"$GPRMC,180611,A,4797.6184,N,-8183.6908,W,9.72,164.8,120825,,A*64"
"$GPGGA,180611,4797.6184,N,-8183.6908,W,1,12,1.4,6898.1,M,,,*06"
"$GPRMC,180612,A,4797.6141,N,-8183.689,W,9.72,164.0,120825,,A*56"
"$GPGGA,180612,4797.6141,N,-8183.689,W,1,9,1.0,6898.1,M,,,*02"
"$GPRMC,180613,A,4797.6099,N,-8183.687,W,9.72,160.2,120825,,A*5B"
"$GPGGA,180613,4797.6099,N,-8183.687,W,1,10,0.9,6898.1,M,,,*39"
"$GPRMC,180614,A,4797.6056,N,-8183.685,W,9.72,162.3,120825,,A*5E"
"$GPGGA,180614,4797.6056,N,-8183.685,W,1,12,1.5,6898.1,M,,,*30"
"$GPRMC,180615,A,4797.6014,N,-8183.6828,W,9.72,159.0,120825,,A*6D"
"$GPGGA,180615,4797.6014,N,-8183.6828,W,1,9,1.0,6898.1,M,,,*37"
"$GPRMC,180616,A,4797.5972,N,-8183.6803,W,9.72,156.5,120825,,A*67"
"$GPGGA,180616,4797.5972,N,-8183.6803,W,1,7,1.1,6898.1,M,,,*38"
"$GPRMC,180617,A,4797.5931,N,-8183.6781,W,9.72,159.7,120825,,A*69"
"$GPGGA,180617,4797.5931,N,-8183.6781,W,1,7,1.3,6898.1,M,,,*39"
"$GPRMC,180618,A,4797.5887,N,-8183.6763,W,9.72,162.6,120825,,A*6F"
"$GPGGA,180618,4797.5887,N,-8183.6763,W,1,6,2.2,6898.1,M,,,*35"
"$GPRMC,180619,A,4797.5844,N,-8183.6748,W,9.72,166.4,120825,,A*6E"
"$GPGGA,180619,4797.5844,N,-8183.6748,W,1,9,0.9,6898.1,M,,,*34"
"$GPRMC,180620,A,4797.5801,N,-8183.6736,W,9.72,168.2,120825,,A*64"
"$GPGGA,180620,4797.5801,N,-8183.6736,W,1,11,2.0,6898.1,M,,,*04"
"$GPRMC,180621,A,4797.5756,N,-8183.6723,W,9.72,167.4,120825,,A*65"
"$GPGGA,180621,4797.5756,N,-8183.6723,W,1,7,1.8,6898.1,M,,,*30"
"$GPRMC,180622,A,4797.5714,N,-8183.6705,W,9.72,163.8,120825,,A*6C"
"$GPGGA,180622,4797.5714,N,-8183.6705,W,1,7,1.5,6898.1,M,,,*3C"
"$GPRMC,180623,A,4797.5671,N,-8183.6685,W,9.72,161.0,120825,,A*6C"
"$GPGGA,180623,4797.5671,N,-8183.6685,W,1,6,2.4,6898.1,M,,,*35"
"$GPRMC,180624,A,4797.5627,N,-8183.667,W,9.72,165.1,120825,,A*57"
"$GPGGA,180624,4797.5627,N,-8183.667,W,1,12,0.7,6898.1,M,,,*3F"
"$GPRMC,180625,A,4797.5584,N,-8183.6658,W,9.72,169.3,120825,,A*68"
"$GPGGA,180625,4797.5584,N,-8183.6658,W,1,6,2.1,6898.1,M,,,*3F"
"$GPRMC,180626,A,4797.5539,N,-8183.6641,W,9.72,165.5,120825,,A*6F"
"$GPGGA,180626,4797.5539,N,-8183.6641,W,1,12,1.8,6898.1,M,,,*0D"
"$GPRMC,180627,A,4797.5496,N,-8183.6626,W,9.72,164.9,120825,,A*66"
"$GPGGA,180627,4797.5496,N,-8183.6626,W,1,8,1.9,6898.1,M,,,*33"
"$GPRMC,180628,A,4797.5454,N,-8183.6608,W,9.72,163.5,120825,,A*60"
"$GPGGA,180628,4797.5454,N,-8183.6608,W,1,9,1.7,6898.1,M,,,*31"
"$GPRMC,180629,A,4797.5412,N,-8183.6585,W,9.72,158.6,120825,,A*6E"
"$GPGGA,180629,4797.5412,N,-8183.6585,W,1,9,1.6,6898.1,M,,,*35"
"$GPRMC,180630,A,4797.5371,N,-8183.656,W,9.72,156.0,120825,,A*57"
"$GPGGA,180630,4797.5371,N,-8183.656,W,1,8,1.6,6898.1,M,,,*05"
"$GPRMC,180631,A,4797.5329,N,-8183.6538,W,9.72,159.3,120825,,A*6A"
"$GPGGA,180631,4797.5329,N,-8183.6538,W,1,12,2.2,6898.1,M,,,*08"
"$GPRMC,180632,A,4797.5286,N,-8183.6521,W,9.72,163.6,120825,,A*69"
"$GPGGA,180632,4797.5286,N,-8183.6521,W,1,11,2.1,6898.1,M,,,*07"
"$GPRMC,180633,A,4797.5242,N,-8183.65,W,9.72,160.5,120825,,A*63"
"$GPGGA,180633,4797.5242,N,-8183.65,W,1,11,1.1,6898.1,M,,,*0E"
"$GPRMC,180634,A,4797.5201,N,-8183.6478,W,9.72,159.0,120825,,A*62"
"$GPGGA,180634,4797.5201,N,-8183.6478,W,1,12,1.1,6898.1,M,,,*03"
"$GPRMC,180635,A,4797.5159,N,-8183.6458,W,9.72,162.2,120825,,A*65"
"$GPGGA,180635,4797.5159,N,-8183.6458,W,1,6,2.0,6898.1,M,,,*39"
"$GPRMC,180636,A,4797.5116,N,-8183.6443,W,9.72,165.3,120825,,A*61"
"$GPGGA,180636,4797.5116,N,-8183.6443,W,1,11,2.4,6898.1,M,,,*09"
"$GPRMC,180637,A,4797.5072,N,-8183.6425,W,9.72,162.5,120825,,A*62"
"$GPGGA,180637,4797.5072,N,-8183.6425,W,1,9,2.2,6898.1,M,,,*34"
"$GPRMC,180638,A,4797.5029,N,-8183.6405,W,9.72,161.4,120825,,A*63"
"$GPGGA,180638,4797.5029,N,-8183.6405,W,1,7,1.0,6898.1,M,,,*38"
"$GPRMC,180639,A,4797.4987,N,-8183.6381,W,9.72,158.2,120825,,A*69"
"$GPGGA,180639,4797.4987,N,-8183.6381,W,1,6,1.1,6898.1,M,,,*3E"
"$GPRMC,180640,A,4797.4946,N,-8183.6363,W,9.72,163.2,120825,,A*6E"
"$GPGGA,180640,4797.4946,N,-8183.6363,W,1,6,1.0,6898.1,M,,,*30"
"$GPRMC,180641,A,4797.4902,N,-8183.6346,W,9.72,163.9,120825,,A*63"
"$GPGGA,180641,4797.4902,N,-8183.6346,W,1,9,1.9,6898.1,M,,,*30"
"$GPRMC,180642,A,4797.4859,N,-8183.6328,W,9.72,163.2,120825,,A*6C"
"$GPGGA,180642,4797.4859,N,-8183.6328,W,1,6,2.0,6898.1,M,,,*31"
"$GPRMC,180643,A,4797.4816,N,-8183.6311,W,9.72,164.3,120825,,A*6A"
"$GPGGA,180643,4797.4816,N,-8183.6311,W,1,9,0.9,6898.1,M,,,*35"
"$GPRMC,180644,A,4797.4771,N,-8183.6298,W,9.72,168.2,120825,,A*6E"
"$GPGGA,180644,4797.4771,N,-8183.6298,W,1,10,1.1,6898.1,M,,,*0D"
"$GPRMC,180645,A,4797.4727,N,-8183.6283,W,9.72,165.3,120825,,A*6A"
"$GPGGA,180645,4797.4727,N,-8183.6283,W,1,12,1.8,6898.1,M,,,*0E"
"$GPRMC,180646,A,4797.4684,N,-8183.6266,W,9.72,164.5,120825,,A*6D"
"$GPGGA,180646,4797.4684,N,-8183.6266,W,1,12,2.4,6898.1,M,,,*01"
"$GPRMC,180647,A,4797.4642,N,-8183.6248,W,9.72,162.3,120825,,A*6A"
"$GPGGA,180647,4797.4642,N,-8183.6248,W,1,8,2.2,6898.1,M,,,*3B"
"$GPRMC,180648,A,4797.4599,N,-8183.6233,W,9.72,166.7,120825,,A*6C"
"$GPGGA,180648,4797.4599,N,-8183.6233,W,1,10,0.9,6898.1,M,,,*0D"
"$GPRMC,180649,A,4797.4556,N,-8183.6215,W,9.72,162.6,120825,,A*6F"
"$GPGGA,180649,4797.4556,N,-8183.6215,W,1,7,1.0,6898.1,M,,,*35"
"$GPRMC,180650,A,4797.4514,N,-8183.6191,W,9.72,158.7,120825,,A*66"
"$GPGGA,180650,4797.4514,N,-8183.6191,W,1,12,2.0,6898.1,M,,,*03"
"$GPRMC,180651,A,4797.4472,N,-8183.6168,W,9.72,156.9,120825,,A*60"
"$GPGGA,180651,4797.4472,N,-8183.6168,W,1,10,2.2,6898.1,M,,,*05"
"$GPRMC,180652,A,4797.4431,N,-8183.6146,W,9.72,160.7,120825,,A*63"
"$GPGGA,180652,4797.4431,N,-8183.6146,W,1,12,0.9,6898.1,M,,,*06"
"$GPRMC,180653,A,4797.4387,N,-8183.613,W,9.72,164.4,120825,,A*5E"
"$GPGGA,180653,4797.4387,N,-8183.613,W,1,7,2.2,6898.1,M,,,*01"
"$GPRMC,180654,A,4797.4342,N,-8183.6116,W,9.72,167.3,120825,,A*60"
"$GPGGA,180654,4797.4342,N,-8183.6116,W,1,8,1.7,6898.1,M,,,*32"
"$GPRMC,180655,A,4797.4299,N,-8183.6105,W,9.72,168.4,120825,,A*6C"
"$GPGGA,180655,4797.4299,N,-8183.6105,W,1,11,2.3,6898.1,M,,,*09"
"$GPRMC,180656,A,4797.4254,N,-8183.6096,W,9.72,173.1,120825,,A*6A"
"$GPGGA,180656,4797.4254,N,-8183.6096,W,1,6,1.0,6898.1,M,,,*36"
"$GPRMC,180657,A,4797.4211,N,-8183.6086,W,9.72,170.2,120825,,A*6B"
"$GPGGA,180657,4797.4211,N,-8183.6086,W,1,11,2.3,6898.1,M,,,*01"
"$GPRMC,180658,A,4797.4166,N,-8183.6078,W,9.72,172.8,120825,,A*6E"
"$GPGGA,180658,4797.4166,N,-8183.6078,W,1,12,1.1,6898.1,M,,,*0E"
"$GPRMC,180659,A,4797.4121,N,-8183.6073,W,9.72,174.9,120825,,A*60"
"$GPGGA,180659,4797.4121,N,-8183.6073,W,1,9,2.4,6898.1,M,,,*3B"
"$GPRMC,180700,A,4797.4076,N,-8183.607,W,9.72,176.7,120825,,A*51"
"$GPGGA,180700,4797.4076,N,-8183.607,W,1,12,1.0,6898.1,M,,,*3B"
"$GPRMC,180701,A,4797.4031,N,-8183.6061,W,9.72,173.0,120825,,A*61"
"$GPGGA,180701,4797.4031,N,-8183.6061,W,1,8,0.7,6898.1,M,,,*34"
"$GPRMC,180702,A,4797.3987,N,-8183.6051,W,9.72,169.7,120825,,A*6E"
"$GPGGA,180702,4797.3987,N,-8183.6051,W,1,9,1.8,6898.1,M,,,*38"
"$GPRMC,180703,A,4797.3942,N,-8183.6038,W,9.72,168.1,120825,,A*6E"
"$GPGGA,180703,4797.3942,N,-8183.6038,W,1,9,2.0,6898.1,M,,,*34"
"$GPRMC,180704,A,4797.3899,N,-8183.6028,W,9.72,171.3,120825,,A*65"
"$GPGGA,180704,4797.3899,N,-8183.6028,W,1,11,1.4,6898.1,M,,,*0B"
"$GPRMC,180705,A,4797.3854,N,-8183.6021,W,9.72,173.6,120825,,A*6B"
"$GPGGA,180705,4797.3854,N,-8183.6021,W,1,9,2.4,6898.1,M,,,*38"
"$GPRMC,180706,A,4797.3809,N,-8183.6011,W,9.72,170.3,120825,,A*65"
"$GPGGA,180706,4797.3809,N,-8183.6011,W,1,9,2.3,6898.1,M,,,*37"
"$GPRMC,180707,A,4797.3766,N,-8183.6005,W,9.72,173.6,120825,,A*61"
"$GPGGA,180707,4797.3766,N,-8183.6005,W,1,8,1.9,6898.1,M,,,*3D"
"$GPRMC,180708,A,4797.3721,N,-8183.5998,W,9.72,174.0,120825,,A*62"
"$GPGGA,180708,4797.3721,N,-8183.5998,W,1,12,2.5,6898.1,M,,,*0B"
"$GPRMC,180709,A,4797.3676,N,-8183.5996,W,9.72,179.0,120825,,A*63"
"$GPGGA,180709,4797.3676,N,-8183.5996,W,1,11,2.1,6898.1,M,,,*00"
"$GPRMC,180710,A,4797.3631,N,-8183.599,W,9.72,174.0,120825,,A*53"
"$GPGGA,180710,4797.3631,N,-8183.599,W,1,9,1.0,6898.1,M,,,*06"
"$GPRMC,180711,A,4797.3586,N,-8183.5988,W,9.72,177.8,120825,,A*6F"
"$GPGGA,180711,4797.3586,N,-8183.5988,W,1,12,1.9,6898.1,M,,,*02"
"$GPRMC,180712,A,4797.3541,N,-8183.5986,W,9.72,179.0,120825,,A*6F"
"$GPGGA,180712,4797.3541,N,-8183.5986,W,1,7,2.4,6898.1,M,,,*3E"
"$GPRMC,180713,A,4797.3496,N,-8183.5988,W,9.72,181.1,120825,,A*6D"
"$GPGGA,180713,4797.3496,N,-8183.5988,W,1,9,1.1,6898.1,M,,,*32"
"$GPRMC,180714,A,4797.3451,N,-8183.5993,W,9.72,184.3,120825,,A*6C"
"$GPGGA,180714,4797.3451,N,-8183.5993,W,1,10,0.9,6898.1,M,,,*05"
"$GPRMC,180715,A,4797.3407,N,-8183.5996,W,9.72,183.0,120825,,A*6F"
"$GPGGA,180715,4797.3407,N,-8183.5996,W,1,7,2.5,6898.1,M,,,*3A"
"$GPRMC,180716,A,4797.3362,N,-8183.6003,W,9.72,186.4,120825,,A*6F"
"$GPGGA,180716,4797.3362,N,-8183.6003,W,1,10,1.2,6898.1,M,,,*09"
"$GPRMC,180717,A,4797.3317,N,-8183.6011,W,9.72,187.9,120825,,A*63"
"$GPGGA,180717,4797.3317,N,-8183.6011,W,1,8,1.8,6898.1,M,,,*3A"
"$GPRMC,180718,A,4797.3272,N,-8183.6021,W,9.72,189.4,120825,,A*6E"
"$GPGGA,180718,4797.3272,N,-8183.6021,W,1,7,2.5,6898.1,M,,,*35"
"$GPRMC,180719,A,4797.3229,N,-8183.6026,W,9.72,185.1,120825,,A*6F"
"$GPGGA,180719,4797.3229,N,-8183.6026,W,1,9,1.6,6898.1,M,,,*33"
"$GPRMC,180720,A,4797.3184,N,-8183.6033,W,9.72,185.6,120825,,A*62"
"$GPGGA,180720,4797.3184,N,-8183.6033,W,1,10,1.3,6898.1,M,,,*04"
"$GPRMC,180721,A,4797.3139,N,-8183.6041,W,9.72,188.4,120825,,A*6F"
"$GPGGA,180721,4797.3139,N,-8183.6041,W,1,12,1.0,6898.1,M,,,*07"
"$GPRMC,180722,A,4797.3096,N,-8183.6055,W,9.72,191.9,120825,,A*68"
"$GPGGA,180722,4797.3096,N,-8183.6055,W,1,11,2.1,6898.1,M,,,*04"
"$GPRMC,180723,A,4797.3051,N,-8183.6063,W,9.72,187.2,120825,,A*6B"
"$GPGGA,180723,4797.3051,N,-8183.6063,W,1,12,2.2,6898.1,M,,,*0B"
"$GPRMC,180724,A,4797.3006,N,-8183.6066,W,9.72,183.3,120825,,A*6E"
"$GPGGA,180724,4797.3006,N,-8183.6066,W,1,12,1.6,6898.1,M,,,*0C"
"$GPRMC,180725,A,4797.2961,N,-8183.607,W,9.72,183.4,120825,,A*56"
"$GPGGA,180725,4797.2961,N,-8183.607,W,1,8,1.7,6898.1,M,,,*09"
"$GPRMC,180726,A,4797.2917,N,-8183.6078,W,9.72,187.6,120825,,A*6A"
"$GPGGA,180726,4797.2917,N,-8183.6078,W,1,9,1.8,6898.1,M,,,*3D"
"$GPRMC,180727,A,4797.2872,N,-8183.6088,W,9.72,189.3,120825,,A*6D"
"$GPGGA,180727,4797.2872,N,-8183.6088,W,1,9,2.2,6898.1,M,,,*38"
"$GPRMC,180728,A,4797.2827,N,-8183.6096,W,9.72,188.3,120825,,A*6C"
"$GPGGA,180728,4797.2827,N,-8183.6096,W,1,9,1.7,6898.1,M,,,*3E"
"$GPRMC,180729,A,4797.2782,N,-8183.6105,W,9.72,186.9,120825,,A*62"
"$GPGGA,180729,4797.2782,N,-8183.6105,W,1,6,1.8,6898.1,M,,,*34"
"$GPRMC,180730,A,4797.2739,N,-8183.6113,W,9.72,187.8,120825,,A*6D"
"$GPGGA,180730,4797.2739,N,-8183.6113,W,1,8,2.2,6898.1,M,,,*3C"
"$GPRMC,180731,A,4797.2694,N,-8183.612,W,9.72,186.1,120825,,A*52"
"$GPGGA,180731,4797.2694,N,-8183.612,W,1,10,2.3,6898.1,M,,,*33"
"$GPRMC,180732,A,4797.2649,N,-8183.6128,W,9.72,187.8,120825,,A*61"
"$GPGGA,180732,4797.2649,N,-8183.6128,W,1,7,2.1,6898.1,M,,,*3C"
"$GPRMC,180733,A,4797.2606,N,-8183.6135,W,9.72,186.9,120825,,A*67"
"$GPGGA,180733,4797.2606,N,-8183.6135,W,1,9,1.0,6898.1,M,,,*36"
"$GPRMC,180734,A,4797.2561,N,-8183.6146,W,9.72,189.4,120825,,A*64"
"$GPGGA,180734,4797.2561,N,-8183.6146,W,1,7,1.3,6898.1,M,,,*3A"
"$GPRMC,180735,A,4797.2517,N,-8183.6158,W,9.72,191.9,120825,,A*6F"
"$GPGGA,180735,4797.2517,N,-8183.6158,W,1,11,2.0,6898.1,M,,,*02"
"$GPRMC,180736,A,4797.2472,N,-8183.6166,W,9.72,188.1,120825,,A*63"
"$GPGGA,180736,4797.2472,N,-8183.6166,W,1,7,1.1,6898.1,M,,,*3B"
"$GPRMC,180737,A,4797.2427,N,-8183.6176,W,9.72,188.2,120825,,A*60"
"$GPGGA,180737,4797.2427,N,-8183.6176,W,1,12,1.3,6898.1,M,,,*0D"
"$GPRMC,180738,A,4797.2382,N,-8183.6183,W,9.72,186.8,120825,,A*69"
"$GPGGA,180738,4797.2382,N,-8183.6183,W,1,6,1.7,6898.1,M,,,*31"
"$GPRMC,180739,A,4797.2339,N,-8183.6186,W,9.72,182.8,120825,,A*69"
"$GPGGA,180739,4797.2339,N,-8183.6186,W,1,9,1.5,6898.1,M,,,*38"
"$GPRMC,180740,A,4797.2294,N,-8183.619,W,9.72,183.5,120825,,A*5A"
"$GPGGA,180740,4797.2294,N,-8183.619,W,1,6,0.8,6898.1,M,,,*04"
"$GPRMC,180741,A,4797.2249,N,-8183.6195,W,9.72,183.7,120825,,A*6C"
"$GPGGA,180741,4797.2249,N,-8183.6195,W,1,7,0.9,6898.1,M,,,*30"
"$GPRMC,180742,A,4797.2204,N,-8183.6195,W,9.72,180.3,120825,,A*61"
"$GPGGA,180742,4797.2204,N,-8183.6195,W,1,6,1.7,6898.1,M,,,*34"
"$GPRMC,180743,A,4797.2159,N,-8183.6193,W,9.72,178.5,120825,,A*6C"
"$GPGGA,180743,4797.2159,N,-8183.6193,W,1,10,1.4,6898.1,M,,,*0C"
"$GPRMC,180744,A,4797.2114,N,-8183.6193,W,9.72,179.6,120825,,A*60"
"$GPGGA,180744,4797.2114,N,-8183.6193,W,1,8,1.3,6898.1,M,,,*3C"
"$GPRMC,180745,A,4797.2069,N,-8183.6195,W,9.72,182.6,120825,,A*68"
"$GPGGA,180745,4797.2069,N,-8183.6195,W,1,10,1.2,6898.1,M,,,*08"
"$GPRMC,180746,A,4797.2024,N,-8183.6193,W,9.72,178.0,120825,,A*67"
"$GPGGA,180746,4797.2024,N,-8183.6193,W,1,6,1.6,6898.1,M,,,*37"
"$GPRMC,180747,A,4797.1979,N,-8183.6193,W,9.72,179.9,120825,,A*6C"
"$GPGGA,180747,4797.1979,N,-8183.6193,W,1,11,0.8,6898.1,M,,,*0D"
"$GPRMC,180748,A,4797.1934,N,-8183.6195,W,9.72,181.6,120825,,A*64"
"$GPGGA,180748,4797.1934,N,-8183.6195,W,1,11,0.7,6898.1,M,,,*02"
"$GPRMC,180749,A,4797.1889,N,-8183.6201,W,9.72,186.4,120825,,A*69"
"$GPGGA,180749,4797.1889,N,-8183.6201,W,1,10,2.4,6898.1,M,,,*0A"
"$GPRMC,180750,A,4797.1846,N,-8183.6208,W,9.72,185.8,120825,,A*64"
"$GPGGA,180750,4797.1846,N,-8183.6208,W,1,12,1.2,6898.1,M,,,*0F"
"$GPRMC,180751,A,4797.1801,N,-8183.6211,W,9.72,183.8,120825,,A*68"
"$GPGGA,180751,4797.1801,N,-8183.6211,W,1,7,0.8,6898.1,M,,,*3A"
"$GPRMC,180752,A,4797.1756,N,-8183.6216,W,9.72,183.3,120825,,A*6A"
"$GPGGA,180752,4797.1756,N,-8183.6216,W,1,11,1.3,6898.1,M,,,*0E"
"$GPRMC,180753,A,4797.1711,N,-8183.6215,W,9.72,179.6,120825,,A*6B"
"$GPGGA,180753,4797.1711,N,-8183.6215,W,1,12,1.8,6898.1,M,,,*07"
"$GPRMC,180754,A,4797.1666,N,-8183.6216,W,9.72,180.4,120825,,A*6A"
"$GPGGA,180754,4797.1666,N,-8183.6216,W,1,8,1.1,6898.1,M,,,*30"
"$GPRMC,180755,A,4797.1621,N,-8183.622,W,9.72,184.2,120825,,A*5F"
"$GPGGA,180755,4797.1621,N,-8183.622,W,1,7,1.0,6898.1,M,,,*09"
"$GPRMC,180756,A,4797.1576,N,-8183.6223,W,9.72,182.7,120825,,A*6D"
"$GPGGA,180756,4797.1576,N,-8183.6223,W,1,10,1.9,6898.1,M,,,*07"
"$GPRMC,180757,A,4797.1531,N,-8183.623,W,9.72,186.6,120825,,A*58"
"$GPGGA,180757,4797.1531,N,-8183.623,W,1,12,0.9,6898.1,M,,,*34"
"$GPRMC,180758,A,4797.1487,N,-8183.624,W,9.72,188.0,120825,,A*54"
"$GPGGA,180758,4797.1487,N,-8183.624,W,1,6,1.8,6898.1,M,,,*05"
"$GPRMC,180759,A,4797.1442,N,-8183.6248,W,9.72,189.0,120825,,A*65"
"$GPGGA,180759,4797.1442,N,-8183.6248,W,1,12,0.8,6898.1,M,,,*01"
"$GPRMC,180800,A,4797.1399,N,-8183.6261,W,9.72,191.3,120825,,A*66"
"$GPGGA,180800,4797.1399,N,-8183.6261,W,1,10,1.4,6898.1,M,,,*07"
"$GPRMC,180801,A,4797.1356,N,-8183.6276,W,9.72,194.8,120825,,A*6C"
"$GPGGA,180801,4797.1356,N,-8183.6276,W,1,6,1.7,6898.1,M,,,*37"
"$GPRMC,180802,A,4797.1311,N,-8183.629,W,9.72,191.3,120825,,A*5A"
"$GPGGA,180802,4797.1311,N,-8183.629,W,1,10,1.8,6898.1,M,,,*37"
"$GPRMC,180803,A,4797.1267,N,-8183.6303,W,9.72,193.2,120825,,A*63"
"$GPGGA,180803,4797.1267,N,-8183.6303,W,1,12,1.7,6898.1,M,,,*00"
"$GPRMC,180804,A,4797.1222,N,-8183.6313,W,9.72,189.4,120825,,A*69"
