$GPGGA,201855.000,4356.9241,N,07853.7161,W,1,5,1.80,152.3,M,-35.3,M,,*66
$GPGLL,4356.9241,N,07853.7161,W,201855.000,A,A*42
$GPGSA,A,3,21,10,23,24,32,,,,,,,,2.04,1.80,0.96*06
$GPGSV,2,1,05,10,73,321,44,23,64,117,20,32,52,273,43,24,41,056,18*72
$GPGSV,2,2,05,21,15,321,18*42
$GPRMC,201855.000,A,4356.9241,N,07853.7161,W,0.51,154.80,130824,,,A*75
$GPVTG,154.80,T,,M,0.51,N,0.94,K,A*3C
$GPGGA,201856.000,4356.9241,N,07853.7161,W,1,5,1.80,152.3,M,-35.3,M,,*65
$GPGLL,4356.9241,N,07853.7161,W,201856.000,A,A*41
$GPGSA,A,3,21,10,23,24,32,,,,,,,,2.04,1.80,0.96*06
$GPGSV,2,1,05,10,74,321,44,23,64,117,20,32,52,273,43,24,41,056,18*75
$GPGSV,2,2,05,21,15,321,19*43
$GPRMC,201856.000,A,4356.9241,N,07853.7161,W,0.51,163.14,130824,,,A*7F
$GPVTG,163.14,T,,M,0.51,N,0.94,K,A*35
$GPGGA,201857.000,4356.9244,N,07853.7160,W,1,5,1.79,152.2,M,-35.3,M,,*67
$GPGLL,4356.9244,N,07853.7160,W,201857.000,A,A*44
$GPGSA,A,3,21,10,23,24,32,,,,,,,,2.04,1.79,0.96*00
$GPGSV,2,1,05,10,74,321,44,23,64,117,19,32,52,273,43,24,41,056,20*74
$GPGSV,2,2,05,21,15,321,19*43
$GPRMC,201857.000,A,4356.9244,N,07853.7160,W,0.43,134.05,130824,,,A*7B
$GPVTG,134.05,T,,M,0.43,N,0.80,K,A*31
$GPGGA,201858.000,4356.9248,N,07853.7162,W,1,5,1.80,152.2,M,-35.3,M,,*60
$GPGLL,4356.9248,N,07853.7162,W,201858.000,A,A*45
$GPGSA,A,3,21,10,23,24,32,,,,,,,,2.04,1.80,0.96*06
$GPGSV,2,1,05,10,74,321,31,23,64,117,21,32,52,273,41,24,41,056,20*7F
$GPGSV,2,2,05,21,15,321,28*41
$GPRMC,201858.000,A,4356.9248,N,07853.7162,W,0.26,122.83,130824,,,A*70
$GPVTG,122.83,T,,M,0.26,N,0.48,K,A*3F
$GPGGA,201859.000,4356.9249,N,07853.7162,W,1,5,1.79,152.2,M,-35.3,M,,*66
$GPGLL,4356.9249,N,07853.7162,W,201859.000,A,A*45
$GPGSA,A,3,21,10,23,24,32,,,,,,,,2.04,1.79,0.96*00
$GPGSV,2,1,05,10,74,321,32,23,64,117,22,32,52,273,41,24,41,056,30*7E
$GPGSV,2,2,05,21,15,321,40*4F
$GPRMC,201859.000,A,4356.9249,N,07853.7162,W,1.49,13.10,130824,,,A*41
$GPVTG,13.10,T,,M,1.49,N,2.76,K,A*01
$GPGGA,201900.000,4356.9259,N,07853.7170,W,1,5,2.73,152.5,M,-35.3,M,,*67
$GPGLL,4356.9259,N,07853.7170,W,201900.000,A,A*4A
$GPGSA,A,3,21,10,23,24,32,,,,,,,,4.39,2.73,3.45*0C
$GPGSV,2,1,05,10,74,321,31,23,64,117,24,32,52,273,40,24,41,056,32*78
$GPGSV,2,2,05,21,15,321,33*4B
$GPRMC,201900.000,A,4356.9259,N,07853.7170,W,1.80,359.72,130824,,,A*72
$GPVTG,359.72,T,,M,1.80,N,3.34,K,A*3A
$GPGGA,201901.000,4356.9267,N,07853.7175,W,1,5,2.72,152.6,M,-35.3,M,,*6C
$GPGLL,4356.9267,N,07853.7175,W,201901.000,A,A*43
$GPGSA,A,3,21,10,23,24,32,,,,,,,,4.39,2.72,3.44*0C
$GPGSV,2,1,05,10,74,321,32,23,64,117,25,32,52,273,30,24,41,056,34*7B
$GPGSV,2,2,05,21,15,321,32*4A
$GPRMC,201901.000,A,4356.9267,N,07853.7175,W,2.06,359.74,130824,,,A*70
$GPVTG,359.74,T,,M,2.06,N,3.81,K,A*3F
$GPGGA,201902.000,4356.9267,N,07853.7167,W,1,5,2.73,153.0,M,-35.3,M,,*6A
$GPGLL,4356.9267,N,07853.7167,W,201902.000,A,A*43
$GPGSA,A,3,21,10,23,24,32,,,,,,,,4.39,2.73,3.45*0C
$GPGSV,2,1,05,10,74,321,40,23,64,117,34,32,52,273,40,24,41,056,35*78
$GPGSV,2,2,05,21,15,321,32*4A
$GPRMC,201902.000,A,4356.9267,N,07853.7167,W,2.00,40.62,130824,,,A*4A
$GPVTG,40.62,T,,M,2.00,N,3.70,K,A*0B
$GPGGA,201903.000,4356.9275,N,07853.7166,W,1,5,1.79,153.3,M,-35.3,M,,*63
$GPGLL,4356.9275,N,07853.7166,W,201903.000,A,A*40
$GPGSA,A,3,21,10,23,24,32,,,,,,,,2.04,1.79,0.96*00
$GPGSV,2,1,05,10,74,321,39,23,64,117,33,32,52,273,40,24,41,056,36*72
$GPGSV,2,2,05,21,15,321,33*4B
$GPRMC,201903.000,A,4356.9275,N,07853.7166,W,1.95,40.09,130824,,,A*4B
$GPVTG,40.09,T,,M,1.95,N,3.61,K,A*09
$GPGGA,201904.000,4356.9287,N,07853.7168,W,1,5,1.80,153.3,M,-35.3,M,,*61
$GPGLL,4356.9287,N,07853.7168,W,201904.000,A,A*44
$GPGSA,A,3,21,10,23,24,32,,,,,,,,2.04,1.80,0.96*06
$GPGSV,2,1,05,10,74,321,39,23,64,117,35,32,52,273,38,24,41,056,37*7A
$GPGSV,2,2,05,21,15,321,24*4D
$GPRMC,201904.000,A,4356.9287,N,07853.7168,W,2.22,24.92,130824,,,A*40
$GPVTG,24.92,T,,M,2.22,N,4.11,K,A*06
$GPGGA,201905.000,4356.9293,N,07853.7170,W,1,5,1.79,153.4,M,-35.3,M,,*6D
$GPGLL,4356.9293,N,07853.7170,W,201905.000,A,A*49
$GPGSA,A,3,21,10,23,24,32,,,,,,,,2.04,1.79,0.96*00
$GPGSV,2,1,05,10,74,321,38,23,64,117,34,32,52,273,36,24,41,056,38*7B
$GPGSV,2,2,05,21,15,321,23*4A
$GPRMC,201905.000,A,4356.9293,N,07853.7170,W,1.88,12.67,130824,,,A*41
$GPVTG,12.67,T,,M,1.88,N,3.48,K,A*01
$GPGGA,201906.000,4356.9293,N,07853.7172,W,1,5,2.72,153.5,M,-35.3,M,,*65
$GPGLL,4356.9293,N,07853.7172,W,201906.000,A,A*48
$GPGSA,A,3,21,10,23,24,32,,,,,,,,4.39,2.72,3.45*0D
$GPGSV,2,1,05,10,74,321,30,23,64,117,32,32,52,273,34,24,41,056,39*76
$GPGSV,2,2,05,21,15,321,30*48
$GPRMC,201906.000,A,4356.9293,N,07853.7172,W,1.45,358.23,130824,,,A*7C
$GPVTG,358.23,T,,M,1.45,N,2.69,K,A*3F
$GPGGA,201907.000,4356.9291,N,07853.7175,W,1,5,2.72,153.7,M,-35.3,M,,*63
$GPGLL,4356.9291,N,07853.7175,W,201907.000,A,A*4C
$GPGSA,A,3,21,10,23,24,32,,,,,,,,4.39,2.72,3.44*0C
$GPGSV,2,1,05,10,74,321,40,23,64,117,33,32,52,273,35,24,41,056,39*71
$GPGSV,2,2,05,21,15,321,31*49
$GPRMC,201907.000,A,4356.9291,N,07853.7175,W,0.99,336.70,130824,,,A*76
$GPVTG,336.70,T,,M,0.99,N,1.83,K,A*36
$GPGGA,201908.000,4356.9290,N,07853.7171,W,1,5,1.79,153.9,M,-35.3,M,,*6F
$GPGLL,4356.9290,N,07853.7171,W,201908.000,A,A*46
$GPGSA,A,3,21,10,23,24,32,,,,,,,,2.04,1.79,0.96*00
$GPGSV,2,1,05,10,74,321,40,23,64,117,35,32,52,273,36,24,41,056,39*74
$GPGSV,2,2,05,21,15,321,32*4A
$GPRMC,201908.000,A,4356.9290,N,07853.7171,W,0.78,36.50,130824,,,A*42
$GPVTG,36.50,T,,M,0.78,N,1.44,K,A*03
$GPGGA,201909.000,4356.9272,N,07853.7166,W,1,5,1.79,154.2,M,-35.3,M,,*68
$GPGLL,4356.9272,N,07853.7166,W,201909.000,A,A*4D
$GPGSA,A,3,21,10,23,24,32,,,,,,,,2.04,1.79,0.96*00
$GPGSV,2,1,05,10,74,321,40,23,63,118,34,32,52,273,37,24,41,056,38*7D
$GPGSV,2,2,05,21,15,321,40*4F
$GPRMC,201909.000,A,4356.9272,N,07853.7166,W,1.71,153.23,130824,,,A*77
$GPVTG,153.23,T,,M,1.71,N,3.17,K,A*39
$GPGGA,201910.000,4356.9267,N,07853.7166,W,1,5,1.79,154.1,M,-35.3,M,,*67
$GPGLL,4356.9267,N,07853.7166,W,201910.000,A,A*41
$GPGSA,A,3,21,10,23,24,32,,,,,,,,2.04,1.79,0.96*00
$GPGSV,2,1,05,10,74,321,30,23,63,118,27,32,52,273,24,24,40,055,38*78
$GPGSV,2,2,05,21,15,321,24*4D
$GPRMC,201910.000,A,4356.9267,N,07853.7166,W,4.75,159.09,130824,,,A*78
$GPVTG,159.09,T,,M,4.75,N,8.79,K,A*39
$GPGGA,201911.000,4356.9265,N,07853.7161,W,1,5,1.79,154.1,M,-35.3,M,,*63
$GPGLL,4356.9265,N,07853.7161,W,201911.000,A,A*45
$GPGSA,A,3,21,10,23,24,32,,,,,,,,2.04,1.79,0.96*00
$GPGSV,2,1,05,10,74,321,31,23,63,118,28,32,52,273,22,24,40,055,36*7E
$GPGSV,2,2,05,21,15,321,23*4A
$GPRMC,201911.000,A,4356.9265,N,07853.7161,W,2.12,93.91,130824,,,A*4D
$GPVTG,93.91,T,,M,2.12,N,3.92,K,A*06
$GPGGA,201912.000,4356.9261,N,07853.7147,W,1,5,1.79,154.1,M,-35.GPGSA,A,3,21,10,23,24,32,,,,,,,,2.04,1.79,0.96*00
$GPGSV,2,1,05,10,74,321,29,23,63,118,30,32,52,273,31,24,40,055,36*7C
$GPGSV,2,2,05,21,15,321,23*4A
$GPRMC,201912.000,A,4356.9261,N,07853.7147,W,4.26,103.64,130824,,,A*7D
$GPVTG,103.64,T,,M,4.26,N,7.90,K,A*33
$GPGGA,201913.000,4356.9259,N,07853.7139,W,1,5,2.72,154.0,M,-35.3,M,,*6A
$GPGLL,4356.9259,N,07853.7139,W,201913.000,A,A*45
$GPGSA,A,3,21,10,23,24,32,,,,,,,,4.39,2.72,3.45*0D
$GPGSV,2,1,05,10,74,321,28,23,63,118,28,32,52,273,31,24,40,055,36*74
$GPGSV,2,2,05,21,15,321,24*4D
$GPRMC,201913.000,A,4356.9259,N,07853.7139,W,1.89,109.18,130824,,,A*7F
$GPVTG,109.18,T,,M,1.89,N,3.50,K,A*3A
$GPGGA,201914.000,4356.9258,N,07853.7132,W,1,5,1.79,154.0,M,-35.3,M,,*6F
$GPGLL,4356.9258,N,07853.7132,W,201914.000,A,A*48
$GPGSA,A,3,21,10,23,24,32,,,,,,,,2.04,1.79,0.96*00
$GPGSV,2,1,05,10,74,321,29,23,63,118,28,32,52,273,30,24,40,055,36*74
$GPGSV,2,2,05,21,15,321,23*4A
$GPRMC,201914.000,A,4356.9258,N,07853.7132,W,1.79,99.20,130824,,,A*4E
$GPVTG,99.20,T,,M,1.79,N,3.31,K,A*01
$GPGGA,201915.000,4356.9258,N,07853.7126,W,1,5,1.79,153.9,M,-35.3,M,,*65
$GPGLL,4356.9258,N,07853.7126,W,201915.000,A,A*4C
$GPGSA,A,3,21,10,23,24,32,,,,,,,,2.04,1.79,0.96*00
$GPGSV,2,1,05,10,74,321,30,23,63,118,27,32,52,273,21,24,40,055,24*70
$GPGSV,2,2,05,21,15,321,23*4A
$GPRMC,201915.000,A,4356.9258,N,07853.7126,W,1.50,93.30,130824,,,A*4A
$GPVTG,93.30,T,,M,1.50,N,2.79,K,A*0C
$GPGGA,201916.000,4356.9258,N,07853.7119,W,1,5,1.79,153.8,M,-35.3,M,,*6B
$GPGLL,4356.9258,N,07853.7119,W,201916.000,A,A*43
$GPGSA,A,3,21,10,23,24,32,,,,,,,,2.04,1.79,0.96*00
$GPGSV,2,1,05,10,74,321,37,23,63,118,35,32,52,273,22,24,40,055,25*76
$GPGSV,2,2,05,21,15,321,32*4A
$GPRMC,201916.000,A,4356.9258,N,07853.7119,W,1.62,86.87,130824,,,A*4C
$GPVTG,86.87,T,,M,1.62,N,3.00,K,A*0A
$GPGGA,201917.000,4356.9257,N,07853.7114,W,1,5,1.80,153.7,M,-35.3,M,,*61
$GPGLL,4356.9257,N,07853.7114,W,201917.000,A,A*40
$GPGSA,A,3,21,10,23,24,32,,,,,,,,2.04,1.80,0.96*06
$GPGSV,2,1,05,10,74,321,36,23,63,118,25,32,52,273,29,24,40,055,24*7C
$GPGSV,2,2,05,21,15,321,31*49
$GPRMC,201917.000,A,4356.9257,N,07853.7114,W,1.37,95.96,130824,,,A*4D
$GPVTG,95.96,T,,M,1.37,N,2.55,K,A*09
$GPGGA,201918.000,4356.9265,N,07853.7107,W,1,5,1.79,153.9,M,-35.3,M,,*65
$GPGLL,4356.9265,N,07853.7107,W,201918.000,A,A*4C
$GPGSA,A,3,21,10,23,24,32,,,,,,,,2.03,1.79,0.96*07
$GPGSV,2,1,05,10,74,321,37,23,63,118,39,32,53,273,40,24,40,055,33*78
$GPGSV,2,2,05,21,15,321,31*49
$GPRMC,201918.000,A,4356.9265,N,07853.7107,W,2.24,37.05,130824,,,A*42
$GPVTG,37.05,T,,M,2.24,N,4.16,K,A*0B
$GPGGA,201919.000,4356.9266,N,07853.7105,W,1,5,1.79,153.9,M,-35.3,M,,*65
$GPGLL,4356.9266,N,07853.7105,W,201919.000,A,A*4C
$GPGSA,A,3,21,10,23,24,32,,,,,,,,2.04,1.79,0.96*00
$GPGSV,2,1,05,10,74,321,38,23,63,118,37,32,53,273,39,24,40,055,35*71
$GPGSV,2,2,05,21,15,321,22*4B
$GPRMC,201919.000,A,4356.9266,N,07853.7105,W,1.02,79.99,130824,,,A*4A
$GPVTG,79.99,T,,M,1.02,N,1.90,K,A*08
$GPGGA,201920.000,4356.9269,N,07853.7096,W,1,5,1.80,153.8,M,-35.3,M,,*6C
$GPGLL,4356.9269,N,07853.7096,W,201920.000,A,A*42
$GPGSA,A,3,21,10,23,24,32,,,,,,,,2.04,1.80,0.96*06
$GPGSV,2,1,05,12,05,21,15,321,23*4A
$GPRMC,201920.000,A,4356.9269,N,07853.7096,W,2.04,65.85,130824,,,A*41
$GPVTG,65.85,T,,M,2.04,N,3.78,K,A*09
$GPGGA,201921.000,4356.9272,N,07853.7084,W,1,5,1.79,153.7,M,-35.3,M,,*6D
$GPGLL,4356.9272,N,07853.7084,W,201921.000,A,A*4A
$GPGSA,A,3,21,10,23,24,32,,,,,,,,2.04,1.79,0.96*00
$GPGSV,2,1,05,10,74,321,36,23,63,118,24,32,53,273,35,24,40,055,34*70
$GPGSV,2,2,05,21,15,321,23*4A
$GPRMC,201921.000,A,4356.9272,N,07853.7084,W,2.67,68.54,130824,,,A*4D
$GPVTG,68.54,T,,M,2.67,N,4.94,K,A*08
$GPGGA,201922.000,4356.9275,N,07853.7071,W,1,5,1.79,153.6,M,-35.3,M,,*62
$GPGLL,4356.9275,N,07853.7071,W,201922.000,A,A*44
$GPGSA,A,3,21,10,23,24,32,,,,,,,,2.03,1.79,0.96*07
$GPGSV,2,1,05,10,74,321,27,23,63,118,33,32,53,273,36,24,40,055,32*73
$GPGSV,2,2,05,21,15,321,22*4B
$GPRMC,201922.000,A,4356.9275,N,07853.7071,W,2.87,73.07,130824,,,A*41
$GPVTG,73.07,T,,M,2.87,N,5.31,K,A*04
$GPGGA,201923.000,4356.9276,N,07853.7056,W,1,5,1.79,153.6,M,-35.3,M,,*65
$GPGLL,4356.9276,N,07853.7056,W,201923.000,A,A*43
$GPGSA,A,3,21,10,23,24,32,,,,,,,,2.03,1.79,0.96*07
$GPGSV,2,1,05,10,74,321,37,23,63,118,34,32,53,273,37,24,40,055,33*75
$GPGSV,2,2,05,21,15,321,22*4B
$GPRMC,201923.000,A,4356.9276,N,07853.7056,W,3.37,77.26,130824,,,A*4B
$GPVTG,77.26,T,,M,3.37,N,6.24,K,A*0E
$GPGGA,201924.000,4356.9277,N,07853.7043,W,1,5,1.79,153.5,M,-35.3,M,,*64
$GPGLL,4356.9277,N,07853.7043,W,201924.000,A,A*41
$GPGSA,A,3,21,10,23,24,32,,,,,,,,2.04,1.79,0.96*00
$GPGSV,2,1,05,10,74,321,29,23,63,118,36,32,53,273,25,24,40,055,34*7C
$GPGSV,2,2,05,21,15,321,22*4B
$GPRMC,201924.000,A,4356.9277,N,07853.7043,W,3.67,85.83,130824,,,A*4E
$GPVTG,85.83,T,,M,3.67,N,6.80,K,A*07
$GPGGA,201925.000,4356.9275,N,07853.7033,W,1,5,1.79,153.4,M,-35.3,M,,*61
$GPGLL,4356.9275,N,07853.7033,W,201925.000,A,A*45
$GPGSA,A,3,21,10,23,24,32,,,,,,,,2.04,1.79,0.96*00
$GPGSV,2,1,05,10,74,321,29,23,63,118,34,32,53,273,27,24,40,055,35*7D
$GPGSV,2,2,05,21,15,321,23*4A
$GPRMC,201925.000,A,4356.9275,N,07853.7033,W,2.30,115.99,130824,,,A*7A
$GPVTG,115.99,T,,M,2.30,N,4.27,K,A*38
$GPGGA,201926.000,4356.9271,N,07853.7031,W,1,5,1.79,153.3,M,-35.3,M,,*63
$GPGLL,4356.9271,N,07853.7031,W,201926.000,A,A*40
$GPGSA,A,3,21,10,23,24,32,,,,,,,,2.03,1.79,0.96*07
$GPGSV,2,1,05,10,74,321,29,23,63,118,23,32,53,273,39,24,40,055,25*75
$GPGSV,2,2,05,21,15,321,24*4D
$GPRMC,201926.000,A,4356.9271,N,07853.7031,W,1.49,189.98,130824,,,A*76
$GPVTG,189.98,T,,M,1.49,N,2.75,K,A*30
$GPGGA,201927.000,4356.9260,N,07853.7041,W,1,5,1.79,153.4,M,-35.3,M,,*62
$GPGLL,4356.9260,N,07853.7041,W,201927.000,A,A*46
$GPGSA,A,3,21,10,23,24,32,,,,,,,,2.04,1.79,0.96*00
$GPGSV,2,1,05,10,74,321,38,23,63,118,34,32,53,273,39,24,40,055,38*7F
$GPGSV,2,2,05,21,15,321,35*4D
$GPRMC,201927.000,A,4356.9260,N,07853.7041,W,4.67,239.72,130824,,,A*75
$GPVTG,239.72,T,,M,4.67,N,8.65,K,A*3E
$GPGGA,201928.000,4356.9256,N,07853.7059,W,1,5,2.72,153.2,M,-35.3,M,,*6F
$GPGLL,4356.9256,N,07853.7059,W,201928.000,A,A*45
$GPGSA,A,3,21,10,23,24,32,,,,,,,,4.38,2.72,3.44*0D
$GPGSV,2,1,05,10,74,321,37,23,63,118,33,32,53,273,32,24,40,055,39*7D
$GPGSV,2,2,05,21,15,321,24*4D
$GPRMC,201928.000,A,4356.9256,N,07853.7059,W,4.06,240.30,130824,,,A*79
$GPVTG,240.30,T,,M,4.06,N,7.53,K,A*3B
$GPGGA,201929.000,4356.9251,N,07853.7072,W,1,5,2.72,153.1,M,-35.3,M,,*63
$GPGLL,4356.9251,N,07853.7072,W,201929.000,A,A*4A
$GPGSA,A,3,21,10,23,24,32,,,,,,,,4.39,2.72,3.44*0C
$GPGSV,2,1,05,10,74,321,24,23,63,118,26,32,53,273,30,24,40,055,22*73
$GPGSV,2,2,05,21,15,321,23*4A
$GPRMC,201929.000,A,4356.9251,N,07853.7072,W,3.81,242.47,130824,,,A*7C
$GPVTG,242.47,T,,M,3.81,N,7.06,K,A*31
$GPGGA,201930.000,4356.9246,N,07853.7086,W,1,5,1.79,153.0,M,-35.3,M,,*6F
$GPGLL,4356.9246,N,07853.7086,W,201930.000,A,A*4F
$GPGSA,A,3,21,10,23,24,32,,,,,,,,2.03,1.79,0.96*07
$GPGSV,2,1,05,10,74,321,25,23,63,118,27,32,53,273,41,24,40,055,22*75
$GPGSV,2,2,05,21,15,321,32*4A
$GPRMC,201930.000,A,4356.9246,N,07853.7086,W,4.12,253.20,130824,,,A*75
$GPVTG,253.20,T,,M,4.12,N,7.63,K,A*3E
$GPGGA,201931.000,4356.9243,N,07853.7104,W,1,5,2.72,152.9,M,-35.3,M,,*60
$GPGLL,4356.9243,N,07853.7104,W,201931.000,A,A*40
$GPGSA,A,3,21,10,23,24,32,,,,,,,,4.38,2.72,3.44*0D
$GPGSV,2,1,05,10,74,321,27,23,63,118,27,32,53,273,40,24,40,055,22*76
$GPGSV,2,2,05,21,15,321,31*49
$GPRMC,201931.000,A,4356.9243,N,07853.7104,W,4.76,256.53,130824,,,A*79
$GPVTG,256.53,T,,M,4.76,N,8.82,K,A*3D
$GPGGA,201932.000,4356.9239,N,07853.7124,W,1,5,2.72,152.7,M,-35.3,M,,*62
$GPGLL,4356.9239,N,07853.7124,W,201932.000,A,A*4C
$GPGSA,A,3,21,10,23,24,32,,,,,,,,4.39,2.72,3.44*0C
$GPGSV,2,1,05,10,74,321,29,23,63,118,27,32,53,273,39,24,40,055,22*76
$GPGSV,2,2,05,21,15,321,30*48
$GPRMC,201932.000,A,4356.9239,N,07853.7124,W,5.35,255.94,130824,,,A*7B
$GPVTG,255.94,T,,M,5.35,N,9.91,K,A*30
$GPGGA,201933.000,4356.9235,N,07853.7143,W,1,5,2.72,152.6,M,-35.3,M,,*6F
$GPGLL,4356.9235,N,07853.7143,W,201933.000,A,A*40
$GPGSA,A,3,21,10,23,24,32,,,,,,,,4.38,2.72,3.44*0D
$GPGSV,2,1,05,10,74,321,28,23,63,118,20,32,53,273,38,24,40,055,22*71
$GPGSV,2,2,05,21,15,321,39*41
$GPRMC,201933.000,A,4356.9235,N,07853.7143,W,4.70,251.93,130824,,,A*74
$GPVTG,251.93,T,,M,4.70,N,8.70,K,A*3D
$GPGGA,201934.000,4356.9231,N,07853.7161,W,1,5,2.72,152.4,M,-35.3,M,,*6E
$GPGLL,4356.9231,N,07853.7161,W,201934.000,A,A*43
$GPGSA,A,3,21,10,23,24,32,,,,,,,,4.38,2.72,3.44*0D
$GPGSV,2,1,05,10,74,321,28,23,63,118,22,32,53,273,37,24,40,055,22*7C
$GPGSV,2,2,05,21,15,321,39*41
$GPRMC,201934.000,A,4356.9231,N,07853.7161,W,5.08,251.73,130824,,,A*77
$GPVTG,251.73,T,,M,5.08,N,9.42,K,A*3D
$GPGGA,201935.000,4356.9228,N,07853.7177,W,1,5,2.72,152.2,M,-35.3,M,,*66
$GPGLL,4356.9228,N,07853.7177,W,201935.000,A,A*4D
$GPGSA,A,3,21,10,23,24,32,,,,,,,,4.38,2.72,3.44*0D
$GPGSV,2,1,05,10,74,321,29,23,63,118,23,32,53,273,36,24,40,055,21*7E
$GPGSV,2,2,05,21,15,321,30*48
$GPRMC,201935.000,A,4356.9228,N,07853.7177,W,4.52,253.72,130824,,,A*74
$GPVTG,253.72,T,,M,4.52,N,8.37,K,A*33
$GPGGA,201936.000,4356.9226,N,07853.7190,W,1,5,2.72,152.0,M,-35.3,M,,*60
$GPGLL,4356.9226,N,07853.7190,W,201936.000,A,A*49
$GPGSA,A,3,21,10,23,24,32,,,,,,,,4.38,2.72,3.44*0D
$GPGSV,2,1,05,10,74,321,38,23,63,118,31,32,53,273,37,24,40,055,22*7F
$GPGSV,2,2,05,21,15,321,30*48
$GPRMC,201936.000,A,4356.9226,N,07853.7190,W,3.27,252.61,130824,,,A*76
$GPVTG,252.61,T,,M,3.27,N,6.06,K,A*39
$GPGGA,201937.000,4356.9224,N,07853.7199,W,1,5,1.79,151.8,M,-35.3,M,,*69
$GPGLL,4356.9224,N,07853.7199,W,201937.000,A,A*43
$GPGSA,A,3,21,10,23,24,32,,,,,,,,2.03,1.79,0.96*07
$GPGSV,2,1,05,10,74,321,37,23,63,118,29,32,53,273,38,24,40,055,23*77
$GPGSV,2,2,05,21,15,321,31*49
$GPRMC,201937.000,A,4356.9224,N,07853.7199,W,2.42,239.17,130824,,,A*72
$GPVTG,239.17,T,,M,2.42,N,4.48,K,A*3F
$GPGGA,201938.000,4356.9221,N,07853.7208,W,1,5,1.79,151.5,M,-35.3,M,,*65
$GPGLL,4356.9221,N,07853.7208,W,201938.000,A,A*42
$GPGSA,A,3,21,10,23,24,32,,,,,,,,2.03,1.79,0.96*07
$GPGSV,2,1,05,10,74,321,38,23,63,118,27,32,53,273,40,24,40,055,23*79
$GPGSV,2,2,05,21,15,321,29*40
$GPRMC,201938.000,A,4356.9221,N,07853.7208,W,2.56,238.01,130824,,,A*70
$GPVTG,238.01,T,,M,2.56,N,4.74,K,A*33
$GPGGA,201939.000,4356.9219,N,0707853.7215,W,201939.000,A,A*44
$GPGSA,A,3,21,10,23,24,32,,,,,,,,2.03,1.79,0.96*07
$GPGSV,2,1,05,10,74,321,36,23,63,118,19,32,53,273,39,24,40,055,23*74
$GPGSV,2,2,05,21,15,321,30*48
$GPRMC,201939.000,A,4356.9219,N,07853.7215,W,2.15,244.10,130824,,,A*7A
$GPVTG,244.10,T,,M,2.15,N,3.99,K,A*3B
$GPGGA,201940.000,4356.9218,N,07853.7225,W,1,5,1.79,151.0,M,-35.3,M,,*6A
$GPGLL,4356.9218,N,07853.7225,W,201940.000,A,A*48
$GPGSA,A,3,21,10,23,24,32,,,,,,,,2.03,1.79,0.96*07
$GPGSV,2,1,05,10,74,321,37,23,63,118,26,32,53,273,40,24,40,055,25*71
$GPGSV,2,2,05,21,15,321,30*48
$GPRMC,201940.000,A,4356.9218,N,07853.7225,W,2.46,255.98,130824,,,A*70
$GPVTG,255.98,T,,M,2.46,N,4.56,K,A*39
$GPGGA,201941.000,4356.9211,N,07853.7236,W,1,5,1.79,150.6,M,-35.3,M,,*67
$GPGLL,4356.9211,N,07853.7236,W,201941.000,A,A*42
$GPGSA,A,3,21,10,23,24,32,,,,,,,,2.03,1.79,0.96*07
$GPGSV,2,1,05,10,74,321,38,23,63,118,39,32,53,273,40,24,40,055,26*73
$GPGSV,2,2,05,21,15,321,28*41
$GPRMC,201941.000,A,4356.9211,N,07853.7236,W,3.77,227.16,130824,,,A*7A
$GPVTG,227.16,T,,M,3.77,N,6.98,K,A*39
$GPGGA,201942.000,4356.9204,N,07853.7241,W,1,5,1.79,150.3,M,-35.3,M,,*65
$GPGLL,4356.9204,N,07853.7241,W,201942.000,A,A*45
$GPGSA,A,3,21,10,23,24,32,,,,,,,,2.03,1.79,0.96*07
$GPGSV,2,1,05,10,74,321,28,23,63,118,37,32,53,273,30,24,40,055,26*7B
$GPGSV,2,2,05,21,15,320,20*48
$GPRMC,201942.000,A,4356.9204,N,07853.7241,W,2.68,192.84,130824,,,A*74
$GPVTG,192.84,T,,M,2.68,N,4.96,K,A*3C
$GPGGA,201943.000,4356.9199,N,07853.7242,W,1,5,1.79,150.0,M,-35.3,M,,*63
$GPGLL,4356.9199,N,07853.7242,W,201943.000,A,A*40
$GPGSA,A,3,21,10,23,24,32,,,,,,,,2.03,1.79,0.96*07
$GPGSV,2,1,05,10,74,321,27,23,63,118,28,32,53,273,28,24,40,055,24*71
$GPGSV,2,2,05,21,15,320,19*42
$GPRMC,201943.000,A,4356.9199,N,07853.7242,W,2.11,176.75,130824,,,A*7B
$GPVTG,176.75,T,,M,2.11,N,3.91,K,A*36
$GPGGA,201944.000,4356.9201,N,07853.7243,W,1,5,1.79,149.8,M,-35.3,M,,*67
$GPGLL,4356.9201,N,07853.7243,W,201944.000,A,A*44
$GPGSA,A,3,21,10,23,24,32,,,,,,,,2.03,1.79,0.96*07
$GPGSV,2,1,05,10,74,321,26,23,63,118,30,32,53,273,36,24,40,055,24*76
$GPGSV,2,2,05,21,15,320,19*42
$GPRMC,201944.000,A,4356.9201,N,07853.7243,W,0.76,239.03,130824,,,A*75
$GPVTG,239.03,T,,M,0.76,N,1.40,K,A*32
$GPGGA,201945.000,4356.9203,N,07853.7246,W,1,5,1.79,149.4,M,-35.3,M,,*6D
$GPGLL,4356.9203,N,07853.7246,W,201945.000,A,A*42
$GPGSA,A,3,21,10,23,24,32,,,,,,,,2.03,1.79,0.96*07
$GPGSV,2,1,05,10,74,321,28,23,63,118,23,32,53,273,36,24,40,055,24*7A
$GPGSV,2,2,05,21,15,320,18*43
$GPRMC,201945.000,A,4356.9203,N,07853.7246,W,0.81,291.40,130824,,,A*7E
$GPVTG,291.40,T,,M,0.81,N,1.51,K,A*3F
$GPGGA,201946.000,4356.9204,N,07853.7247,W,1,5,1.79,149.0,M,-35.3,M,,*6C
$GPGLL,4356.9204,N,07853.7247,W,201946.000,A,A*47
$GPGSA,A,3,21,10,23,24,32,,,,,,,,2.03,1.79,0.96*07
$GPGSV,2,1,05,10,74,321,37,23,63,118,23,32,53,273,37,24,40,055,24*75
$GPGSV,2,2,05,21,15,320,18*43
$GPRMC,201946.000,A,4356.9204,N,07853.7247,W,0.64,345.69,130824,,,A*73
$GPVTG,345.69,T,,M,0.64,N,1.18,K,A*3A
$GPGGA,201947.000,4356.9207,N,07853.7252,W,1,5,2.71,148.6,M,-35.3,M,,*66
$GPGLL,4356.9207,N,07853.7252,W,201947.000,A,A*41
$GPGSA,A,3,21,10,23,24,32,,,,,,,,4.38,2.71,3.44*0E
$GPGSV,2,1,05,10,74,321,37,23,63,118,24,32,53,273,44,24,40,055,26*74
$GPGSV,2,2,05,21,15,320,27*4F
$GPRMC,201947.000,A,4356.9207,N,07853.7252,W,0.69,340.30,130824,,,A*71
$GPVTG,340.30,T,,M,0.69,N,1.28,K,A*3D
$GPGGA,201948.000,4356.9213,N,07853.7258,W,1,5,1.79,148.3,M,-35.3,M,,*68
$GPGLL,4356.9213,N,07853.7258,W,201948.000,A,A*41
$GPGSA,A,3,21,10,23,24,32,,,,,,,,2.03,1.79,0.96*07
$GPGSV,2,1,05,10,74,321,37,23,63,118,34,32,53,273,42,24,40,055,26*73
$GPGSV,2,2,05,21,15,320,26*4E
$GPRMC,201948.000,A,4356.9213,N,07853.7258,W,1.71,316.26,130824,,,A*7D
$GPVTG,316.26,T,,M,1.71,N,3.17,K,A*3F
$GPGGA,201949.000,4356.9219,N,07853.7265,W,1,5,1.79,148.0,M,-35.3,M,,*6E
$GPGLL,4356.9219,N,07853.7265,W,201949.000,A,A*44
$GPGSA,A,3,21,10,23,24,32,,,,,,,,2.03,1.79,0.96*07
$GPGSV,2,1,05,10,74,321,24,23,63,118,34,32,53,273,26,24,40,055,26*73
$GPGSV,2,2,05,21,15,320,24*4C
$GPRMC,201949.000,A,4356.9219,N,07853.7265,W,2.18,322.95,130824,,,A*7B
$GPVTG,322.95,T,,M,2.18,N,4.04,K,A*39
$GPGGA,201950.000,4356.9224,N,07853.7271,W,1,5,1.79,147.7,M,-35.3,M,,*65
$GPGLL,4356.9224,N,07853.7271,W,201950.000,A,A*47
$GPGSA,A,3,21,10,23,24,32,,,,,,,,2.03,1.79,0.96*07
$GPGSV,2,1,05,10,74,321,39,23,63,118,25,32,53,273,39,24,40,055,25*72
$GPGSV,2,2,05,21,15,320,16*4D
$GPRMC,201950.000,A,4356.9224,N,07853.7271,W,2.31,319.71,130824,,,A*71
$GPVTG,319.71,T,,M,2.31,N,4.28,K,A*3E
$GPGGA,201951.000,4356.9227,N,07853.7275,W,1,5,1.79,147.4,M,-35.3,M,,*60
$GPGLL,4356.9227,N,07853.7275,W,201951.000,A,A*41
$GPGSA,A,3,21,10,23,24,32,,,,,,,,2.03,1.79,0.96*07
$GPGSV,2,1,05,10,74,321,39,23,63,118,25,32,53,273,41,24,40,055,24*7C
$GPGSV,2,2,05,21,15,320,16*4D
$GPRMC,201951.000,A,4356.9227,N,07853.7275,W,1.55,340.74,130824,,,A*7F
$GPVTG,340.74,T,,M,1.55,N,2.86,K,A*34
$GPGGA,201952.000,4356.9229,N,07853.7279,W,1,5,1.79,147.1,M,-35.3,M,,*64
$GPGLL,4356.9229,N,07853.7279,W,201952.000,A,A*40
$GPGSA,A,3,21,10,23,24,32,,,,,,,,2.03,1.79,0.96*07
$GPGSV,2,1,05,10,74,321,40,23,63,118,25,32,53,273,39,24,40,055,35*7D
$GPGSV,2,2,05,21,15,320,17*4C
$GPRMC,201952.000,A,4356.9229,N,07853.7279,W,1.90,20.60,130824,,,A*47
$GPVTG,20.60,T,,M,1.90,N,3.52,K,A*05
$GPGGA,201953.000,4356.9230,N,07853.7281,W,1,5,1.79,146.9,M,-35.3,M,,*63
$GPGLL,4356.9230,N,07853.7281,W,201953.000,A,A*4E
$GPGSA,A,3,21,10,23,24,32,,,,,,,,2.03,1.79,0.96*07
$GPGSV,2,1,05,10,74,321,41,23,63,118,38,32,53,274,39,24,40,055,35*77
$GPGSV,2,2,05,21,15,320,30*49
$GPRMC,201953.000,A,4356.9230,N,07853.7281,W,1.86,23.09,130824,,,A*42
$GPVTG,23.09,T,,M,1.86,N,3.44,K,A*09
$GPGGA,201954.000,4356.9232,N,07853.7282,W,1,5,1.79,146.8,M,-35.3,M,,*64
$GPGLL,4356.9232,N,07853.7282,W,201954.000,A,A*48
$GPGSA,A,3,21,10,23,24,32,,,,,,,,2.03,1.79,0.96*07
$GPGSV,2,1,05,10,74,321,42,23,63,118,37,32,53,274,30,24,40,055,37*70
$GPGSV,2,2,05,21,15,320,20*48
$GPRMC,201954.000,A,4356.9232,N,07853.7282,W,2.38,31.25,130824,,,A*4F
$GPVTG,31.25,T,,M,2.38,N,4.41,K,A*00
$GPGGA,201955.000,4356.9231,N,07853.7282,W,1,5,1.79,146.7,M,-35.3,M,,*69
$GPGLL,4356.9231,N,07853.7282,W,201955.000,A,A*4A
$GPGSA,A,3,21,10,23,24,32,,,,,,,,2.03,1.79,0.96*07
$GPGSV,2,1,05,10,74,321,43,23,63,118,38,32,53,274,39,24,40,055,44*73
$GPGSV,2,2,05,21,15,320,20*48
$GPRMC,201955.000,A,4356.9231,N,07853.7282,W,2.31,33.13,130824,,,A*43
$GPVTG,33.13,T,,M,2.31,N,4.29,K,A*00
$GPGGA,201956.000,4356.9234,N,07853.7275,W,1,5,1.79,146.5,M,-35.3,M,,*65
$GPGLL,4356.9234,N,07853.7275,W,201956.000,A,A*44
$GPGSA,A,3,21,10,23,24,32,,,,,,,,2.03,1.79,0.96*07
$GPGSV,2,1,05,10,74,321,44,23,63,118,38,32,53,274,39,24,40,055,35*72
$GPGSV,2,2,05,21,15,320,22*4A
$GPRMC,201956.000,A,4356.9234,N,07853.7275,W,2.88,54.06,130824,,,A*4A
$GPVTG,54.06,T,,M,2.88,N,5.33,K,A*0D
$GPGGA,201957.000,4356.9233,N,07853.7268,W,1,5,1.79,146.4,M,-35.3,M,,*6E
$GPGLL,4356.9233,N,07853.7268,W,201957.000,A,A*4E
$GPGSA,A,3,21,10,23,24,32,,,,,,,,2.03,1.79,0.96*07
$GPGSV,2,1,05,10,74,321,42,23,63,118,37,32,53,274,38,24,40,055,37*78
$GPGSV,2,2,05,21,15,320,23*4B
$GPRMC,201957.000,A,4356.9233,N,07853.7268,W,2.58,76.16,130824,,,A*4C
$GPVTG,76.16,T,,M,2.58,N,4.77,K,A*00
$GPGGA,201958.000,4356.9231,N,07853.7260,W,1,5,1.79,146.3,M,-35.3,M,,*6C
$GPGLL,4356.9231,N,07853.7260,W,201958.000,A,A*4B
$GPGSA,A,3,21,10,23,24,32,,,,,,,,2.03,1.79,0.96*07
$GPGSV,2,1,05,10,74,321,41,23,63,118,37,32,53,274,29,24,40,055,38*74
$GPGSV,2,2,05,21,15,320,34*4D
$GPRMC,201958.000,A,4356.9231,N,07853.7260,W,2.25,72.40,130824,,,A*44
$GPVTG,72.40,T,,M,2.25,N,4.16,K,A*0A
$GPGGA,201959.000,4356.9225,N,07853.7251,W,1,5,1.79,146.4,M,-35.3,M,,*6D
$GPGLL,4356.9225,N,07853.7251,W,201959.000,A,A*4D
$GP0,74,321,40,23,63,118,28,32,53,274,37,24,40,055,38*74
$GPGSV,2,2,05,21,15,320,35*4C
$GPRMC,201959.000,A,4356.9225,N,07853.7251,W,2.40,110.95,130824,,,A*7C
$GPVTG,110.95,T,,M,2.40,N,4.44,K,A*33
$GPGGA,202000.000,4356.9221,N,07853.7240,W,1,5,1.79,146.4,M,-35.3,M,,*6F
$GPGLL,4356.9221,N,07853.7240,W,202000.000,A,A*4F
$GPGSA,A,3,21,10,23,24,32,,,,,,,,2.03,1.79,0.96*07
$GPGSV,2,1,05,10,74,321,39,23,63,118,35,32,53,274,38,24,40,055,38*79
$GPGSV,2,2,05,21,15,320,36*4F
$GPRMC,202000.000,A,4356.9221,N,07853.7240,W,2.70,98.17,130824,,,A*46
$GPVTG,98.17,T,,M,2.70,N,5.00,K,A*0A
$GPGGA,202001.000,4356.9217,N,07853.7231,W,1,5,1.79,146.3,M,-35.3,M,,*6A
$GPGLL,4356.9217,N,07853.7231,W,202001.000,A,A*4D
$GPGSA,A,3,21,10,23,24,32,,,,,,,,2.03,1.79,0.96*07
$GPGSV,2,1,05,10,74,321,39,23,63,118,28,32,53,274,31,24,40,055,40*73
$GPGSV,2,2,05,21,15,320,36*4F
$GPRMC,202001.000,A,4356.9217,N,07853.7231,W,2.95,112.98,130824,,,A*7B
$GPVTG,112.98,T,,M,2.95,N,5.47,K,A*36
$GPGGA,202002.000,4356.9214,N,07853.7222,W,1,5,1.79,146.2,M,-35.3,M,,*69
$GPGLL,4356.9214,N,07853.7222,W,202002.000,A,A*4F
$GPGSA,A,3,21,10,23,24,32,,,,,,,,2.03,1.79,0.96*07
$GPGSV,2,1,05,10,74,321,40,23,63,118,36,32,53,274,38,24,40,055,40*7B
$GPGSV,2,2,05,21,15,320,36*4F
$GPRMC,202002.000,A,4356.9214,N,07853.7222,W,2.53,119.44,130824,,,A*79
$GPVTG,119.44,T,,M,2.53,N,4.68,K,A*3A
$GPGGA,202003.000,4356.9213,N,07853.7215,W,1,5,1.79,146.3,M,-35.3,M,,*6A
$GPGLL,4356.9213,N,07853.7215,W,202003.000,A,A*4D
$GPGSA,A,3,21,10,23,24,32,,,,,,,,2.03,1.79,0.96*07
$GPGSV,2,1,05,10,74,321,39,23,63,118,37,32,53,274,38,24,40,055,41*75
$GPGSV,2,2,05,21,15,320,36*4F
$GPRMC,202003.000,A,4356.9213,N,07853.7215,W,2.41,100.67,130824,,,A*71
$GPVTG,100.67,T,,M,2.41,N,4.47,K,A*3D
$GPGGA,202004.000,4356.9212,N,07853.7206,W,1,5,1.79,146.2,M,-35.3,M,,*6F
$GPGLL,4356.9212,N,07853.7206,W,202004.000,A,A*49
$GPGSA,A,3,21,10,23,24,32,,,,,,,,2.03,1.79,0.96*07
$GPGSV,2,1,05,10,74,321,40,23,63,118,37,32,53,274,37,24,40,055,40*75
$GPGSV,2,2,05,21,15,320,36*4F
$GPRMC,202004.000,A,4356.9212,N,07853.7206,W,2.43,105.97,130824,,,A*7D
$GPVTG,105.97,T,,M,2.43,N,4.50,K,A*33
$GPGGA,202005.000,4356.9211,N,07853.7197,W,1,5,1.79,146.1,M,-35.3,M,,*65
$GPGLL,4356.9211,N,07853.7197,W,202005.000,A,A*40
$GPGSA,A,3,21,10,23,24,32,,,,,,,,2.03,1.79,0.96*07
$GPGSV,2,1,05,10,74,321,40,23,63,118,37,32,53,274,36,24,40,055,40*74
$GPGSV,2,2,05,21,15,320,36*4F
$GPRMC,202005.000,A,4356.9211,N,07853.7197,W,2.43,109.62,130824,,,A*72
$GPVTG,109.62,T,,M,2.43,N,4.50,K,A*35
$GPGGA,202006.000,4356.9208,N,07853.7188,W,1,5,1.79,146.0,M,-35.3,M,,*61
$GPGLL,4356.9208,N,07853.7188,W,202006.000,A,A*45
$GPGSA,A,3,21,10,23,24,32,,,,,,,,2.03,1.79,0.96*07
$GPGSV,2,1,05,10,74,321,41,23,63,118,37,32,53,274,29,24,40,055,39*75
$GPGSV,2,2,05,21,15,320,36*4F
$GPRMC,202006.000,A,4356.9208,N,07853.7188,W,2.47,116.58,130824,,,A*74
$GPVTG,116.58,T,,M,2.47,N,4.58,K,A*3E
$GPGGA,202007.000,4356.9205,N,07853.7181,W,1,5,1.79,145.9,M,-35.3,M,,*6E
$GPGLL,4356.9205,N,07853.7181,W,202007.000,A,A*40
$GPGSA,A,3,21,10,23,24,32,,,,,,,,2.03,1.79,0.96*07
$GPGSV,2,1,05,10,74,321,40,23,63,118,37,32,53,274,36,24,40,055,31*72
$GPGSV,2,2,05,21,15,320,34*4D
$GPRMC,202007.000,A,4356.9205,N,07853.7181,W,2.30,138.91,130824,,,A*78
$GPVTG,138.91,T,,M,2.30,N,4.27,K,A*3F
$GPGGA,202008.000,4356.9201,N,07853.7176,W,1,5,1.79,145.9,M,-35.3,M,,*6D
$GPGLL,4356.9201,N,07853.7176,W,202008.000,A,A*43
$GPGSA,A,3,21,10,23,24,32,,,,,,,,2.03,1.79,0.96*07
$GPGSV,2,1,05,10,74,321,40,23,63,118,38,32,53,274,38,24,40,055,32*70
$GPGSV,2,2,05,21,15,320,34*4D
$GPRMC,202008.000,A,4356.9201,N,07853.7176,W,2.00,159.22,130824,,,A*77
$GPVTG,159.22,T,,M,2.00,N,3.71,K,A*37
$GPGGA,202009.000,4356.9200,N,07853.7174,W,1,5,1.79,145.7,M,-35.3,M,,*61
$GPGLL,4356.9200,N,07853.7174,W,202009.000,A,A*41
$GPGSA,A,3,21,10,23,24,32,,,,,,,,2.03,1.79,0.96*07
$GPGSV,2,1,05,10,74,321,30,23,63,118,39,32,53,274,37,24,40,055,33*78
$GPGSV,2,2,05,21,15,320,32*4B
$GPRMC,202009.000,A,4356.9200,N,07853.7174,W,0.49,80.66,130824,,,A*4F
$GPVTG,80.66,T,,M,0.49,N,0.90,K,A*01
$GPGGA,202010.000,4356.9202,N,07853.7174,W,1,5,1.79,146.1,M,-35.3,M,,*6E
$GPGLL,4356.9202,N,07853.7174,W,202010.000,A,A*4B
$GPGSA,A,3,21,10,23,24,32,,,,,,,,2.03,1.79,0.96*07
$GPGSV,2,1,05,10,74,321,40,23,63,118,38,32,53,274,37,24,40,055,34*79
$GPGSV,2,2,05,21,15,320,31*48
$GPRMC,202010.000,A,4356.9202,N,07853.7174,W,0.21,28.03,130824,,,A*4A
$GPVTG,28.03,T,,M,0.21,N,0.40,K,A*03
$GPGGA,202011.000,4356.9209,N,07853.7179,W,1,5,1.79,146.3,M,-35.3,M,,*6B
$GPGLL,4356.9209,N,07853.7179,W,202011.000,A,A*4C
$GPGSA,A,3,21,10,23,24,32,,,,,,,,2.03,1.79,0.96*07
$GPGSV,2,1,05,10,74,321,41,23,63,118,38,32,53,274,38,24,40,055,27*75
$GPGSV,2,2,05,21,15,320,32*4B
$GPRMC,202011.000,A,4356.9209,N,07853.7179,W,1.45,319.17,130824,,,A*7A
$GPVTG,319.17,T,,M,1.45,N,2.68,K,A*3C
$GPGGA,202012.000,4356.9211,N,07853.7181,W,1,5,1.79,146.3,M,-35.3,M,,*66
$GPGLL,4356.9211,N,07853.7181,W,202012.000,A,A*41
$GPGSA,A,3,21,10,23,24,32,,,,,,,,2.03,1.79,0.96*07
$GPGSV,2,1,05,10,74,321,39,23,63,118,38,32,53,274,30,24,40,055,28*7D
$GPGSV,2,2,05,21,15,320,31*48
$GPRMC,202012.000,A,4356.9211,N,07853.7181,W,1.08,321.25,130824,,,A*74
$GPVTG,321.25,T,,M,1.08,N,2.00,K,A*31
$GPGGA,202013.000,4356.9203,N,07853.7179,W,1,5,1.79,146.3,M,-35.3,M,,*63
$GPGLL,4356.9203,N,07853.7179,W,202013.000,A,A*44
$GPGSA,A,3,21,10,23,24,32,,,,,,,,2.03,1.79,0.96*07
$GPGSV,2,1,05,10,74,321,40,23,63,118,39,32,53,274,31,24,40,055,29*72
$GPGSV,2,2,05,21,15,320,38*41
$GPRMC,202013.000,A,4356.9203,N,07853.7179,W,0.53,166.02,130824,,,A*7A
$GPVTG,166.02,T,,M,0.53,N,0.99,K,A*38
$GPGGA,202014.000,4356.9202,N,07853.7179,W,1,5,1.79,146.4,M,-35.3,M,,*62
$GPGLL,4356.9202,N,07853.7179,W,202014.000,A,A*42
$GPGSA,A,3,21,10,23,24,32,,,,,,,,2.03,1.79,0.96*07
$GPGSV,2,1,05,10,74,321,40,23,63,118,37,32,53,274,38,24,40,055,36*7B
$GPGSV,2,2,05,21,15,320,23*4B
$GPRMC,202014.000,A,4356.9202,N,07853.7179,W,0.52,165.21,130824,,,A*7F
$GPVTG,165.21,T,,M,0.52,N,0.97,K,A*35
$GPGGA,202015.000,4356.9204,N,07853.7179,W,1,5,1.79,146.3,M,-35.3,M,,*62
$GPGLL,4356.9204,N,07853.7179,W,202015.000,A,A*45
$GPGSA,A,3,21,10,23,24,32,,,,,,,,2.03,1.79,0.96*07
$GPGSV,2,1,05,10,74,321,42,23,63,118,38,32,53,274,38,24,40,055,37*77
$GPGSV,2,2,05,21,15,320,23*4B
$GPRMC,202015.000,A,4356.9204,N,07853.7179,W,0.26,171.20,130824,,,A*7F
$GPVTG,171.20,T,,M,0.26,N,0.49,K,A*31
$GPGGA,202016.000,4356.9205,N,07853.7178,W,1,5,1.79,146.2,M,-35.3,M,,*60
$GPGLL,4356.9205,N,07853.7178,W,202016.000,A,A*46
$GPGSA,A,3,21,10,23,24,32,,,,,,,,2.03,1.79,0.96*07
$GPGSV,2,1,05,10,74,321,44,23,63,118,38,32,53,274,38,24,40,055,37*71
$GPGSV,2,2,05,21,15,320,22*4A
$GPRMC,202016.000,A,4356.9205,N,07853.7178,W,0.12,135.50,130824,,,A*7C
$GPVTG,135.50,T,,M,0.12,N,0.22,K,A*3C
