$GPGGA,191935.000,4799.01,N,-8185.11,W,1,3,10.74,185.3,M,-35.3,M,,*45
$GPGLL,4799.01,N,-8185.11,W,191935.000,A,A*56
$GPGSA,A,2,20,05,09,,,,,,,,,,10.79,10.74,1.00*01
$GPGSV,1,1,04,20,59,208,31,05,26,211,41,09,25,075,31,19,,,41*4E
$GPRMC,191935.000,A,4799.01,N,-8185.11,W,0.22,44.23,090524,,,A*5A
$GPVTG,44.23,T,,M,0.22,N,0.41,K,A*09
$GPGGA,191936.000,4799.01,N,-8185.11,W,1,3,10.74,185.3,M,-35.3,M,,*46
$GPGLL,4799.01,N,-8185.11,W,191936.000,A,A*55
$GPGSA,A,2,20,05,09,,,,,,,,,,10.79,10.74,1.00*01
$GPGSV,1,1,04,20,59,208,31,05,26,211,41,09,25,075,31,19,,,41*4E
$GPRMC,191936.000,A,4799.01,N,-8185.11,W,0.16,55.29,090524,,,A*54
$GPVTG,55.29,T,,M,0.16,N,0.29,K,A*0A
$GPGGA,191937.000,4799.0105,N,-8185.1105,W,1,3,10.73,185.3,M,-35.3,M,,*40
$GPGLL,4799.0105,N,-8185.1105,W,191937.000,A,A*54
$GPGSA,A,2,20,05,09,,,,,,,,,,10.78,10.73,1.00*07
$GPGSV,1,1,04,2000,A,4799.0105,N,-8185.1105,W,0.13,355.24,090524,,,A*7F
$GPVTG,355.24,T,,M,0.13,N,0.24,K,A*3C
$GPGGA,191937.212,4799.0107,N,-8185.1108,W,1,3,99.99,185.3,M,-35.3,M,,*4B
$GPGLL,4799.0107,N,-8185.1108,W,191937.212,A,A*5A
$GPGSA,A,2,20,05,09,,,,,,,,,,99.99,99.99,37.00*39
$GPGSV,1,1,04,20,59,208,30,05,26,211,40,09,25,075,30,19,,,40*4E
$GPRMC,191937.212,A,4799.0107,N,-8185.1108,W,0.14,337.50,090524,,,A*60
$GPVTG,337.50,T,,M,0.14,N,0.26,K,A*3E
$GPGGA,191939.000,4799.0118,N,-8185.112,W,1,3,10.74,185.3,M,-35.3,M,,*72
$GPGLL,4799.0118,N,-8185.112,W,191939.000,A,A*61
$GPGSA,A,2,20,05,09,,,,,,,,,,10.78,10.74,1.00*00
$GPGSV,1,1,04,20,59,208,31,05,26,211,40,09,25,075,31,19,,,40*4E
$GPRMC,191939.000,A,4799.0118,N,-8185.112,W,0.02,77.08,090524,,,A*66
$GPVTG,77.08,T,,M,0.02,N,0.03,K,A*04
$GPGGA,191940.000,4799.0125,N,-8185.1127,W,1,3,10.74,185.3,M,-35.3,M,,*45
$GPGLL,4799.0125,N,-8185.1127,W,191940.000,A,A*56
$GPGSA,A,2,20,05,09,,,,,,,,,,10.78,10.74,1.00*00
$GPGSV,1,1,04,20,59,208,32,05,26,211,41,09,25,075,31,19,,,41*4D
$GPRMC,191940.000,A,4799.0125,N,-8185.1127,W,0.41,141.47,090524,,,A*69
$GPVTG,141.47,T,,M,0.41,N,0.76,K,A*3E
$GPGGA,191941.000,4799.0133,N,-8185.1135,W,1,3,10.73,185.3,M,-35.3,M,,*47
$GPGLL,4799.0133,N,-8185.1135,W,191941.000,A,A*53
$GPGSA,A,2,20,05,09,,,,,,,,,,10.78,10.73,1.00*07
$GPGSV,1,1,04,20,59,208,32,05,26,211,41,09,25,075,32,19,,,41*4E
$GPRMC,191941.000,A,4799.0133,N,-8185.1135,W,0.41,130.61,090524,,,A*6E
$GPVTG,130.61,T,,M,0.41,N,0.77,K,A*3D
$GPGGA,191942.000,4799.0147,N,-8185.1147,W,1,3,10.73,185.3,M,-35.3,M,,*42
$GPGLL,4799.0147,N,-8185.1147,W,191942.000,A,A*56
$GPGSA,A,2,20,05,09,,,,,,,,,,10.77,10.73,1.00*08
$GPGSV,1,1,04,20,59,208,32,05,26,211,41,09,25,075,32,19,,,41*4E
$GPRMC,191942.000,A,4799.0147,N,-8185.1147,W,0.36,123.79,090524,,,A*60
$GPVTG,123.79,T,,M,0.36,N,0.67,K,A*37
$GPGGA,191943.000,4799.015,N,-8185.115,W,1,3,10.74,185.3,M,-35.3,M,,*44
$GPGLL,4799.015,N,-8185.115,W,191943.000,A,A*57
$GPGSA,A,2,20,05,09,,,,,,,,,,10.78,10.74,1.00*00
$GPGSV,1,1,04,20,59,208,33,05,26,211,42,09,25,075,32,19,,,41*4C
$GPRMC,191943.000,A,4799.015,N,-8185.115,W,0.53,135.55,090524,,,A*6B
$GPVTG,135.55,T,,M,0.53,N,0.98,K,A*3D
$GPGGA,191943.211,4799.0155,N,-8185.116,W,1,3,10.73,185.3,M,-35.3,M,,*77
$GPGLL,4799.0155,N,-8185.116,W,191943.211,A,A*63
$GPGSA,A,2,20,05,09,,,,,,,,,,10.77,10.73,1.00*08
$GPGSV,1,1,04,20,59,208,33,05,26,211,42,09,25,075,32,19,,,41*4C
$GPRMC,191943.211,A,4799.0155,N,-8185.116,W,0.57,152.67,090524,,,A*5B
$GPVTG,152.67,T,,M,0.57,N,1.06,K,A*3F
$GPGGA,191945.000,4799.0167,N,-8185.1172,W,1,3,10.73,185.3,M,-35.3,M,,*41
$GPGLL,4799.0167,N,-8185.1172,W,191945.000,A,A*55
$GPGSA,A,2,20,05,09,,,,,,,,,,10.78,10.73,1.00*07
$GPGSV,1,1,04,20,59,208,33,05,26,211,42,09,25,075,32,19,,,41*4C
$GPRMC,191945.000,A,4799.0167,N,-8185.1172,W,0.52,136.42,090524,,,A*6D
$GPVTG,136.42,T,,M,0.52,N,0.97,K,A*36
$GPGGA,191946.000,4799.0178,N,-8185.1183,W,1,3,10.73,185.3,M,-35.3,M,,*42
$GPGLL,4799.0178,N,-8185.1183,W,191946.000,A,A*56
$GPGSA,A,2,20,05,09,,,,,,,,,,10.78,10.73,1.00*07
$GPGSV,1,1,04,20,59,208,33,05,26,211,42,09,25,075,32,19,,,41*4C
$GPRMC,191946.000,A,4799.0178,N,-8185.1183,W,0.57,107.38,090524,,,A*64
$GPVTG,107.38,T,,M,0.57,N,1.05,K,A*36
$GPGGA,191947.000,4799.019,N,-8185.1195,W,1,3,10.73,185.3,M,-35.3,M,,*72
$GPGLL,4799.019,N,-8185.1195,W,191947.000,A,A*66
$GPGSA,A,2,20,05,09,,,,,,,,,,10.78,10.73,1.00*07
$GPGSV,1,1,04,20,59,208,33,05,26,211,42,09,25,075,32,19,,,42*4F
$GPRMC,191947.000,A,4799.019,N,-8185.1195,W,0.41,104.18,090524,,,A*52
$GPVTG,104.18,T,,M,0.41,N,0.76,K,A*35
$GPGGA,191948.000,4799.0193,N,-8185.12,W,1,3,10.72,185.3,M,-35.3,M,,*40
$GPGLL,4799.0193,N,-8185.12,W,191948.000,A,A*55
$G,10.72,1.00*09
$GPGSV,1,1,04,20,59,208,33,05,26,211,42,09,25,075,32,19,,,42*4F
$GPRMC,191948.000,A,4799.0193,N,-8185.12,W,0.33,131.17,090524,,,A*6D
$GPVTG,131.17,T,,M,0.33,N,0.62,K,A*3C
$GPGGA,191949.000,4799.0192,N,-8185.1202,W,1,3,10.73,185.3,M,-35.3,M,,*43
$GPGLL,4799.0192,N,-8185.1202,W,191949.000,A,A*57
$GPGSA,A,2,20,05,09,,,,,,,,,,10.77,10.73,1.00*08
$GPGSV,1,1,04,20,59,208,33,05,26,211,42,09,25,075,32,19,,,42*4F
$GPRMC,191949.000,A,4799.0192,N,-8185.1202,W,0.39,142.08,090524,,,A*6F
$GPVTG,142.08,T,,M,0.39,N,0.72,K,A*3D
$GPGGA,191949.211,4799.0193,N,-8185.1208,W,1,3,10.72,185.3,M,-35.3,M,,*4B
$GPGLL,4799.0193,N,-8185.1208,W,191949.211,A,A*5E
$GPGSA,A,2,20,05,09,,,,,,,,,,10.77,10.72,1.00*09
$GPGSV,1,1,04,20,59,208,33,05,26,211,42,09,25,075,32,19,,,42*4F
$GPRMC,191949.211,A,4799.0193,N,-8185.1208,W,0.38,164.19,090524,,,A*63
$GPVTG,164.19,T,,M,0.38,N,0.71,K,A*3B
$GPGGA,191951.000,4799.0188,N,-8185.1203,W,1,3,10.72,185.3,M,-35.3,M,,*41
$GPGLL,4799.0188,N,-8185.1203,W,191951.000,A,A*54
$GPGSA,A,2,20,05,09,,,,,,,,,,10.77,10.72,1.00*09
$GPGSV,2,1,05,20,59,208,33,05,26,211,42,09,25,075,32,19,,,42*4D
$GPGSV,2,2,05,17,,,30*79
$GPRMC,191951.000,A,4799.0188,N,-8185.1203,W,0.40,147.86,090524,,,A*61
$GPVTG,147.86,T,,M,0.40,N,0.75,K,A*37
$GPGGA,191952.000,4799.018,N,-8185.1195,W,1,3,10.74,185.3,M,-35.3,M,,*70
$GPGLL,4799.018,N,-8185.1195,W,191952.000,A,A*63
$GPGSA,A,2,20,05,09,,,,,,,,,,10.78,10.74,1.00*00
$GPGSV,2,1,05,20,59,208,33,05,26,211,42,09,25,075,32,19,,,42*4D
$GPGSV,2,2,05,17,,,28*70
$GPRMC,191952.000,A,4799.018,N,-8185.1195,W,0.58,146.35,090524,,,A*56
$GPVTG,146.35,T,,M,0.58,N,1.08,K,A*3C
$GPGGA,191953.000,4799.0188,N,-8185.1203,W,1,3,10.72,185.3,M,-35.3,M,,*43
$GPGLL,4799.0188,N,-8185.1203,W,191953.000,A,A*56
$GPGSA,A,2,20,05,09,,,,,,,,,,10.77,10.72,1.00*09
$GPGSV,2,1,05,20,59,208,33,05,26,211,42,09,25,075,32,19,,,42*4D
$GPGSV,2,2,05,17,,,29*71
$GPRMC,191953.000,A,4799.0188,N,-8185.1203,W,0.42,145.40,090524,,,A*69
$GPVTG,145.40,T,,M,0.42,N,0.77,K,A*3F
$GPGGA,191954.000,4799.0193,N,-8185.1207,W,1,3,10.72,185.3,M,-35.3,M,,*4A
$GPGLL,4799.0193,N,-8185.1207,W,191954.000,A,A*5F
$GPGSA,A,2,20,05,09,,,,,,,,,,10.77,10.72,1.00*09
$GPGSV,2,1,05,20,59,208,33,05,26,211,42,09,25,075,32,19,,,42*4D
$GPGSV,2,2,05,17,,,29*71
$GPRMC,191954.000,A,4799.0193,N,-8185.1207,W,0.39,150.17,090524,,,A*6A
$GPVTG,150.17,T,,M,0.39,N,0.73,K,A*31
$GPGGA,191955.000,4799.0198,N,-8185.1213,W,1,3,10.72,185.3,M,-35.3,M,,*45
$GPGLL,4799.0198,N,-8185.1213,W,191955.000,A,A*50
$GPGSA,A,2,20,05,09,,,,,,,,,,10.76,10.72,1.00*08
$GPGSV,2,1,05,20,59,208,33,05,26,211,42,09,25,075,32,19,,,42*4D
$GPGSV,2,2,05,17,,,29*71
$GPRMC,191955.000,A,4799.0198,N,-8185.1213,W,0.26,156.78,090524,,,A*64
$GPVTG,156.78,T,,M,0.26,N,0.48,K,A*38
$GPGGA,191955.211,4799.0205,N,-8185.1222,W,1,3,10.72,185.3,M,-35.3,M,,*42
$GPGLL,4799.0205,N,-8185.1222,W,191955.211,A,A*57
$GPGSA,A,2,20,05,09,,,,,,,,,,10.76,10.72,1.00*08
$GPGSV,2,1,05,20,59,208,33,05,26,211,42,09,25,075,32,19,,,42*4D
$GPGSV,2,2,05,17,,,28*70
$GPRMC,191955.211,A,4799.0205,N,-8185.1222,W,0.19,219.65,090524,,,A*6B
$GPVTG,219.65,T,,M,0.19,N,0.36,K,A*39
$GPGGA,191957.000,4799.0208,N,-8185.1228,W,1,3,10.72,185.3,M,-35.3,M,,*45
$GPGLL,4799.0208,N,-8185.1228,W,191957.000,A,A*50
$GPGSA,A,2,20,05,09,,,,,,,,,,10.77,10.72,1.00*09
$GPGSV,2,1,05,20,59,208,33,05,26,211,42,09,25,075,32,19,,,42*4D
$GPGSV,2,2,05,17,,,28*70
$GPRMC,191957.000,A,4799.0208,N,-8185.1228,W,0.12,236.84,090524,,,A*65
$GPVTG,236.84,T,,M,0.12,N,0.21,K,A*36
$GPGGA,191958.000,4799.021,N,-8185.1228,W,1,3,10.72,185.3,M,-35.3,M,,*73
$GPGLL,4799.021,N,-8185.1228,W,191958.000,A,A*66
$GPGSA,A,2,20,05,09,,,,,,,,,,10.77,10.72,1.00*09
$GPGSV,2,1,05,20,59,208,33,05,26,211,42,09,25,075,32,19,,,42*4D
$GPGSV,2,2,05,17,,,28*70
$GPRMC,191958.000,A,4799.021,N,-8185.1228,W,0.13,285.78,090524,,,A*59
$GPVTG,285.78,T,,M,0.13,N,0.23,K,A*3E
$GPGGA,191959.000,4799.0208,N,-8185.1227,W,1,3,10.74,185.3,M,-35.3,M,,*42
$GPGLL,4799.0208,N,-8185.1227,W,191959.000,A,A*51
$GPGSA,A,2,20,05,09,,,,,,,,,,10.78,10.74,1.00*00
$GPGSV,2,1,05,20,59,208,33,05,26,211,42,09,25,075,32,19,,,42*4D
$GPGSV,2,2,05,17,,,28*70
$GPRMC,191959.000,A,4799.0208,N,-8185.1227,W,0.11,304.57,090524,,,A*69
$GPVTG,304.57,T,,M,0.11,N,0.20,K,A*3A
$GPGGA,192000.000,4799.0208,N,-8185.1225,W,1,3,10.71,185.3,M,-35.3,M,,*43
$GPGLL,4799.0208,N,-8185.1225,W,192000.000,A,A*55
$GPGSA,A,2,20,05,09,,,,,,,,,,10.76,10.71,1.00*0B
$GPGSV,2,1,05,20,59,208,33,05,26,211,42,09,25,075,32,19,,,42*4D
$GPGSV,2,2,05,17,,,28*70
$GPRMC,192000.000,A,4799.0208,N,-8185.1225,W,0.20,341.82,090524,,,A*66
$GPVTG,341.82,T,,M,0.20,N,0.37,K,A*37
$GPGGA,192001.000,4799.021,N,-8185.1222,W,1,3,10.72,185.3,M,-35.3,M,,*7F
$GPGLL,4799.021,N,-8185.1222,W,192001.000,A,A*6A
$GPGSA,A,2,20,05,09,,,,,,,,,,10.77,10.72,1.00*09
$GPGSV,2,1,05,20,59,208,33,05,26,211,42,09,25,075,31,19,,,42*4E
$GPGSV,2,2,05,17,,,28*70
$GPRMC,192001.000,A,4799.021,N,-8185.1222,W,0.23,6.76,090524,,,A*51
$GPVTG,6.76,T,,M,0.23,N,0.42,K,A*3D
$GPGGA,192001.205,4799.0448,N,-8185.1475,W,1,4,2.66,182.1,M,-35.3,M,,*73
$GPGLL,4799.0448,N,-8185.1475,W,192001.205,A,A*52
$GPGSA,A,3,19,20,05,09,,,,,,,,,4.11,2.66,3.13*03
$GPGSV,2,1,05,20,59,208,33,19,32,122,42,05,26,211,42,09,25,075,31*7E
$GPGSV,2,2,05,17,,,28*70
$GPRMC,192001.205,A,4799.0448,N,-8185.1475,W,1.01,328.00,090524,,,A*66
$GPVTG,328.00,T,,M,1.01,N,1.88,K,A*35
$GPGGA,192003.000,4799.0497,N,-8185.1522,W,1,4,2.59,181.2,M,-35.3,M,,*7B
$GPGLL,4799.0497,N,-8185.1522,W,192003.000,A,A*56
$GPGSA,A,3,19,20,05,09,,,,,,,,,2.76,2.59,0.95*05
$GPGSV,2,1,05,20,59,208,33,19,32,122,42,05,26,211,42,09,25,075,31*7E
$GPGSV,2,2,05,17,,,28*70
$GPRMC,192003.000,A,4799.0497,N,-8185.1522,W,0.79,336.37,090524,,,A*67
$GPVTG,336.37,T,,M,0.79,N,1.47,K,A*33
$GPGGA,192004.000,4799.0505,N,-8185.153,W,1,4,2.59,180.9,M,-35.3,M,,*4F
$GPGLL,4799.0505,N,-8185.153,W,192004.000,A,A*68
$GPGSA,A,3,19,20,05,09,,,,,,,,,2.76,2.59,0.95*05
$GPGSV,2,1,05,20,59,208,33,19,32,122,42,05,26,211,42,09,25,075,30*7F
$GPGSV,2,2,05,17,,,27*7F
$GPRMC,192004.000,A,4799.0505,N,-8185.153,W,0.38,334.36,090524,,,A*5F
$GPVTG,334.36,T,,M,0.38,N,0.70,K,A*30
$GPGGA,192005.000,4799.0512,N,-8185.1537,W,1,4,2.59,180.6,M,-35.3,M,,*70
$GPGLL,4799.0512,N,-8185.1537,W,192005.000,A,A*58
$GPGSA,A,3,19,20,05,09,,,,,,,,,2.76,2.59,0.95*05
$GPGSV,2,1,05,20,59,208,33,19,32,122,42,05,26,211,42,09,25,075,30*7F
$GPGSV,2,2,05,17,,,27*7F
$GPRMC,192005.000,A,4799.0512,N,-8185.1537,W,0.26,350.46,090524,,,A*65
$GPVTG,350.46,T,,M,0.26,N,0.49,K,A*30
$GPGGA,192006.000,4799.0518,N,-8185.1545,W,1,4,2.65,180.4,M,-35.3,M,,*71
$GPGLL,4799.0518,N,-8185.1545,W,192006.000,A,A*54
$GPGSA,A,3,19,20,05,09,,,,,,,,,4.11,2.65,3.13*00
$GPGSV,2,1,05,20,59,208,33,19,32,122,42,05,26,211,42,09,25,075,30*7F
$GPGSV,2,2,05,17,,,27*7F
$GPRMC,192006.000,A,4799.0518,N,-8185.1545,W,0.12,291.50,090524,,,A*65
$GPVTG,291.50,T,,M,0.12,N,0.22,K,A*31
$GPGGA,192007.000,4799.0523,N,-8185.155,W,1,4,2.59,180.2,M,-35.3,M,,*45
$GPGLL,4799.0523,N,-8185.155,W,192007.000,A,A*69
$GPGSA,A,3,19,20,05,09,,,,,,,,,2.76,2.59,0.95*05
$GPGSV,2,1,05,20,59,208,32,19,32,122,42,05,26,211,42,09,25,075,30*7E
$GPGSV,2,2,05,17,,,27*7F
$GPRMC,192007.000,A,4799.0523,N,-8185.155,W,0.13,6.59,090524,,,A*5C
$GPVTG,6.59,T,,M,0.13,N,0.25,K,A*32
$GPGGA,192008.000,4799.0527,N,-8185.1553,W,1,4,2.65,180.0,M,-35.3,M,,*70
$GPGLL,4799.0527,N,-8185.1553,W,192008.000,A,A*51
$GPGSA,A,3,19,20,05,09,,,,,,,,,4.10,2.65,3.13*01
$GPGSV,2,1,05,20,59,208,32,19,32,122,42,05,26,211,42,09,25,075,30*7E
$GPGSV,2,2,05,17,,,27*7F
$GPRMC,192008.000,A,4799.0527,N,-8185.1553,W,0.08,158.03,090524,,,A*6B
$GPVTG,158.03,T,,M,0.08,N,0.15,K,A*3E
$GPGGA,192009.000,4799.0527,N,-8185.1557,W,1,4,2.58,179.9,M,-35.3,M,,*74
$GPGLL,4799.0527,N,-8185.1557,W,192009.000,A,A*54
$GPGSA,A,3,19,20,05,09,,,,,,,,,2.75,2.58,0.95*07
$GPGSV,2,1,05,20,59,208,32,19,32,122,42,05,26,211,42,09,25,075,30*7E
$GPGSV,2,2,05,17,,,27*7F
$GPRMC,192009.000,A,4799.0527,N,-8185.1557,W,0.16,178.18,090524,,,A*69
$GPVTG,178.18,T,,M,0.16,N,0.29,K,A*36
$GPGGA,192010.000,4799.0528,N,-8185.156,W,1,4,2.58,179.8,M,-35.3,M,,*46
$GPGLL,4799.0528,N,-8185.156,W,192010.000,A,A*67
$GPGSA,A,3,19,20,05,09,,,,,,,,,2.75,2.58,0.95*07
$GPGSV,2,1,05,20,59,208,32,19,32,122,42,05,26,211,42,09,25,075,30*7E
$GPGSV,2,2,05,17,,,27*7F
$GPRMC,192010.000,A,4799.0528,N,-8185.156,W,0.14,171.59,090524,,,A*54
$GPVTG,171.59,T,,M,0.14,N,0.26,K,A*37
$GPGGA,192011.000,4799.053,N,-8185.1562,W,1,4,2.58,179.7,M,-35.3,M,,*43
$GPGLL,4799.053,N,-8185.1562,W,192011.000,A,A*6D
$GPGSA,A,3,19,20,05,09,,,,,,,,,2.75,2.58,0.95*07
$GPGSV,2,1,05,20,59,208,32,19,32,122,42,05,26,211,42,09,25,075,30*7E
$GPGSV,2,2,05,17,,,27*7F
$GPRMC,192011.000,A,4799.053,N,-8185.1562,W,0.20,159.71,090524,,,A*59
$GPVTG,159.71,T,,M,0.20,N,0.37,K,A*30
$GPGGA,192012.000,4799.0532,N,-8185.1563,W,1,4,2.58,179.6,M,-35.3,M,,*72
$GPGLL,4799.0532,N,-8185.1563,W,192012.000,A,A*5D
$GPGSA,A,3,19,20,05,09,,,,,,,,,2.75,2.58,0.95*07
$GPGSV,2,1,05,20,59,208,32,19,32,122,42,05,26,211,42,09,25,075,29*76
$GPGSV,2,2,05,17,,,27*7F
$GPRMC,192012.000,A,4799.0532,N,-8185.1563,W,0.13,142.09,090524,,,A*6C
$GPVTG,142.09,T,,M,0.13,N,0.25,K,A*36
$GPGGA,192013.000,4799.0535,N,-8185.1565,W,1,4,2.58,179.5,M,-35.3,M,,*71
$GPGLL,4799.0535,N,-8185.1565,W,192013.000,A,A*5D
$GPGSA,A,3,19,20,05,09,,,,,,,,,2.75,2.58,0.95*07
$GPGSV,2,1,05,20,59,208,32,19,32,122,42,05,26,211,42,09,25,075,29*76
$GPGSV,2,2,05,17,,,27*7F
$GPRMC,192013.000,A,4799.0535,N,-8185.1565,W,0.07,341.41,090524,,,A*64
$GPVTG,341.41,T,,M,0.07,N,0.13,K,A*3B
$GPGGA,192014.000,4799.0537,N,-8185.1565,W,1,4,2.58,179.4,M,-35.3,M,,*75
$GPGLL,4799.0537,N,-8185.1565,W,192014.000,A,A*58
$GPGSA,A,3,19,20,05,09,,,,,,,,,2.75,2.58,0.95*07
$GPGSV,2,1,05,20,59,208,33,19,32,122,42,05,26,211,42,09,25,075,30*7F
$GPGSV,2,2,05,17,,,28*70
$GPRMC,192014.000,A,4799.0537,N,-8185.1565,W,0.09,74.13,090524,,,A*5D
$GPVTG,74.13,T,,M,0.09,N,0.16,K,A*02
$GPGGA,192015.000,4799.0542,N,-8185.1567,W,1,4,2.58,179.2,M,-35.3,M,,*72
$GPGLL,4799.0542,N,-8185.1567,W,192015.000,A,A*59
$GPGSA,A,3,19,20,05,09,,,,,,,,,2.75,2.58,0.95*07
$GPGSV,2,1,05,20,59,208,33,19,32,122,42,05,26,211,42,09,25,075,31*7E
$GPGSV,2,2,05,17,,,28*70
$GPRMC,192015.000,A,4799.0542,N,-8185.1567,W,0.23,348.66,090524,,,A*6A
$GPVTG,348.66,T,,M,0.23,N,0.42,K,A*35
$GPGGA,192016.000,4799.054,N,-8185.1567,W,1,4,2.65,179.1,M,-35.3,M,,*4E
$GPGLL,4799.054,N,-8185.1567,W,192016.000,A,A*68
$GPGSA,A,3,19,20,05,09,,,,,,,,,4.11,2.65,3.13*00
$GPGSV,2,1,05,20,59,208,33,19,32,122,42,05,26,211,42,09,25,075,31*7E
$GPGSV,2,2,05,17,,,28*70
$GPRMC,192016.000,A,4799.054,N,-8185.1567,W,0.10,42.14,090524,,,A*67
$GPVTG,42.14,T,,M,0.10,N,0.19,K,A*07
$GPGGA,192017.000,4799.054,N,-8185.1567,W,1,4,2.57,179.0,M,-35.3,M,,*4F
$GPGLL,4799.054,N,-8185.1567,W,192017.000,A,A*69
$GPGSA,A,3,19,20,05,09,,,,,,,,,2.75,2.57,0.95*08
$GPGSV,2,1,05,20,59,208,33,19,32,122,42,05,26,211,42,09,25,075,31*7E
$GPGSV,2,2,05,17,,,28*70
$GPRMC,192017.000,A,4799.054,N,-8185.1567,W,0.07,23.85,090524,,,A*6F
$GPVTG,23.85,T,,M,0.07,N,0.14,K,A*03
$GPGGA,192018.000,4799.054,N,-8185.1567,W,1,4,2.57,178.8,M,-35.3,M,,*49
$GPGLL,4799.054,N,-8185.1567,W,192018.000,A,A*66
$GPGSA,A,3,19,20,05,09,,,,,,,,,2.74,2.57,0.95*09
$GPGSV,2,1,05,20,59,208,33,19,32,122,42,05,26,211,42,09,25,075,31*7E
$GPGSV,2,2,05,17,,,28*70
$GPRMC,192018.000,A,4799.054,N,-8185.1567,W,0.05,277.86,090524,,,A*52
$GPVTG,277.86,T,,M,0.05,N,0.08,K,A*3C
$GPGGA,192019.000,4799.0543,N,-8185.157,W,1,4,2.57,178.7,M,-35.3,M,,*42
$GPGLL,4799.0543,N,-8185.157,W,192019.000,A,A*62
$GPGSA,A,3,19,20,05,09,,,,,,,,,2.75,2.57,0.95*08
$GPGSV,2,1,05,20,59,208,33,19,32,122,42,05,26,211,42,09,25,075,31*7E
$GPGSV,2,2,05,17,,,28*70
$GPRMC,192019.000,A,4799.0543,N,-8185.157,W,0.16,345.90,090524,,,A*53
$GPVTG,345.90,T,,M,0.16,N,0.30,K,A*32
$GPGGA,192020.000,4799.0547,N,-8185.1572,W,1,4,2.64,178.6,M,-35.3,M,,*7F
$GPGLL,4799.0547,N,-8185.1572,W,192020.000,A,A*5E
$GPGSA,A,3,19,20,05,09,,,,,,,,,4.10,2.64,3.14*07
$GPGSV,2,1,05,20,59,208,33,19,32,122,42,05,26,211,42,09,25,075,31*7E
$GPGSV,2,2,05,17,,,29*71
$GPRMC,192020.000,A,4799.0547,N,-8185.1572,W,0.17,338.35,090524,,,A*6B
$GPVTG,338.35,T,,M,0.17,N,0.32,K,A*34
$GPGGA,192021.000,4799.055,N,-8185.1573,W,1,4,2.57,178.4,M,-35.3,M,,*4B
$GPGLL,4799.055,N,-8185.1573,W,192021.000,A,A*68
$GPGSA,A,3,19,20,05,09,,,,,,,,,2.74,2.57,0.95*09
$GPGSV,2,1,05,20,59,208,33,19,32,122,42,05,26,211,42,09,25,075,31*7E
$GPGSV,2,2,05,17,,,29*71
$GPRMC,192021.000,A,4799.055,N,-8185.1573,W,0.20,333.48,090524,,,A*58
$GPVTG,333.48,T,,M,0.20,N,0.37,K,A*34
$GPGGA,192022.000,4799.0552,N,-8185.1575,W,1,4,2.57,178.3,M,-35.3,M,,*7B
$GPGLL,4799.0552,N,-8185.1575,W,192022.000,A,A*5F
$GPGSA,A,3,19,20,05,09,,,,,,,,,2.74,2.57,0.95*09
$GPGSV,2,1,05,20,59,208,34,19,32,122,42,05,26,211,42,09,25,075,31*79
$GPGSV,2,2,05,17,,,29*71
$GPRMC,192022.000,A,4799.0552,N,-8185.1575,W,0.16,343.08,090524,,,A*69
$GPVTG,343.08,T,,M,0.16,N,0.29,K,A*3D
$GPGGA,192023.000,4799.0548,N,-8185.1573,W,1,4,2.57,178.2,M,-35.3,M,,*76
$GPGLL,4799.0548,N,-8185.1573,W,192023.000,A,A*53
$GPGSA,A,3,19,20,05,09,,,,,,,,,2.74,2.57,0.95*09
$GPGSV,2,1,05,20,59,208,34,19,32,122,42,05,26,211,42,09,25,075,31*79
$GPGSV,2,2,05,17,,,29*71
$GPRMC,192023.000,A,4799.0548,N,-8185.1573,W,0.01,91.22,090524,,,A*57
$GPVTG,91.22,T,,M,0.01,N,0.02,K,A*06
$GPGGA,192024.000,4799.0547,N,-8185.1573,W,1,4,2.57,178.1,M,-35.3,M,,*7D
$GPGLL,4799.0547,N,-8185.1573,W,192024.000,A,A*5B
$GPGSA,A,3,19,20,05,09,,,,,,,,,2.74,2.57,0.95*09
$GPGSV,2,1,05,20,59,208,34,19,32,122,42,05,26,211,42,09,25,075,31*79
$GPGSV,2,2,05,17,,,29*71
$GPRMC,192024.000,A,4799.0547,N,-8185.1573,W,0.12,149.10,090524,,,A*68
$GPVTG,149.10,T,,M,0.12,N,0.23,K,A*32
$GPGGA,192025.000,4799.0543,N,-8185.1572,W,1,4,2.57,178.0,M,-35.3,M,,*78
$GPGLL,4799.0543,N,-8185.1572,W,192025.000,A,A*5F
$GPGSA,A,3,19,20,05,09,,,,,,,,,2.74,2.57,0.95*09
$GPGSV,2,1,05,20,59,208,34,19,32,122,42,05,26,211,42,09,25,075,31*79
$GPGSV,2,2,05,17,,,29*71
$GPRMC,192025.000,A,4799.0543,N,-8185.1572,W,0.26,154.18,090524,,,A*6F
$GPVTG,154.18,T,,M,0.26,N,0.48,K,A*3C
$GPGGA,192026.000,4799.0545,N,-8185.157,W,1,5,1.94,177.9,M,-35.3,M,,*44
$GPGLL,4799.0545,N,-8185.157,W,192026.000,A,A*68
$GPGSA,A,3,19,20,05,09,17,,,,,,,,2.16,1.94,0.94*06
$GPGSV,2,1,05,20,59,208,34,19,32,122,42,05,26,211,42,09,25,075,31*79
$GPGSV,2,2,05,17,09,125,29*4E
$GPRMC,192026.000,A,4799.0545,N,-8185.157,W,0.21,86.79,090524,,,A*66
$GPVTG,86.79,T,,M,0.21,N,0.39,K,A*04
$GPGGA,192027.000,4799.0545,N,-8185.157,W,1,5,1.94,177.9,M,-35.3,M,,*45
$GPGLL,4799.0545,N,-8185.157,W,192027.000,A,A*69
$GPGSA,A,3,19,20,05,09,17,,,,,,,,2.16,1.94,0.94*06
$GPGSV,2,1,05,20,59,208,33,19,32,122,42,05,26,211,42,09,25,075,31*7E
$GPGSV,2,2,05,17,09,125,28*4F
$GPRMC,192027.000,A,4799.0545,N,-8185.157,W,0.19,309.71,090524,,,A*50
$GPVTG,309.71,T,,M,0.19,N,0.36,K,A*3C
$GPGGA,192028.000,4799.0545,N,-8185.157,W,1,5,1.94,177.9,M,-35.3,M,,*4A
$GPGLL,4799.0545,N,-8185.157,W,192028.000,A,A*66
$GPGSA,A,3,19,20,05,09,17,,,,,,,,2.16,1.94,0.94*06
$GPGSV,2,1,05,20,59,208,32,19,32,122,42,05,26,211,42,09,25,075,30*7E
$GPGSV,2,2,05,17,09,125,27*40
$GPRMC,192028.000,A,4799.0545,N,-8185.157,W,0.08,358.37,090524,,,A*59
$GPVTG,358.37,T,,M,0.08,N,0.15,K,A*3B
$GPGGA,192029.000,4799.0545,N,-8185.157,W,1,5,2.32,177.9,M,-35.3,M,,*44
$GPGLL,4799.0545,N,-8185.157,W,192029.000,A,A*67
$GPGSA,A,3,19,20,05,09,17,,,,,,,,3.61,2.32,2.76*06
$GPGSV,2,1,05,20,59,208,32,19,32,122,42,05,26,211,42,09,25,075,30*7E
$GPGSV,2,2,05,17,09,125,27*40
$GPRMC,192029.000,A,4799.0545,N,-8185.157,W,0.05,178.93,090524,,,A*5B
$GPVTG,178.93,T,,M,0.05,N,0.09,K,A*35
$GPGGA,192030.000,4799.0545,N,-8185.157,W,1,5,1.94,177.9,M,-35.3,M,,*43
$GPGLL,4799.0545,N,-8185.157,W,192030.000,A,A*6F
$GPGSA,A,3,19,20,05,09,17,,,,,,,,2.16,1.94,0.94*06
$GPGSV,2,1,05,20,59,208,32,19,32,122,42,05,26,211,42,09,25,075,30*7E
$GPGSV,2,,W,0.14,85.87,090524,,,A*49
$GPVTG,85.87,T,,M,0.14,N,0.26,K,A*0E
$GPGGA,192031.000,4799.0545,N,-8185.157,W,1,5,1.94,177.9,M,-35.3,M,,*42
$GPGLL,4799.0545,N,-8185.157,W,192031.000,A,A*6E
$GPGSA,A,3,19,20,05,09,17,,,,,,,,2.15,1.94,0.94*05
$GPGSV,2,1,05,20,59,208,32,19,32,122,42,05,26,211,42,09,25,075,30*7E
$GPGSV,2,2,05,17,09,125,28*4F
$GPRMC,192031.000,A,4799.0545,N,-8185.157,W,0.13,116.76,090524,,,A*56
$GPVTG,116.76,T,,M,0.13,N,0.25,K,A*3F
$GPGGA,192032.000,4799.0545,N,-8185.1568,W,1,5,1.94,177.9,M,-35.3,M,,*78
$GPGLL,4799.0545,N,-8185.1568,W,192032.000,A,A*54
$GPGSA,A,3,19,20,05,09,17,,,,,,,,2.15,1.94,0.94*05
$GPGSV,2,1,05,20,59,208,32,19,32,122,42,05,26,211,42,09,25,075,29*76
$GPGSV,2,2,05,17,09,125,27*40
$GPRMC,192032.000,A,4799.0545,N,-8185.1568,W,0.33,92.98,090524,,,A*53
$GPVTG,92.98,T,,M,0.33,N,0.62,K,A*03
$GPGGA,192033.000,4799.0545,N,-8185.1567,W,1,5,1.94,177.9,M,-35.3,M,,*76
$GPGLL,4799.0545,N,-8185.1567,W,192033.000,A,A*5A
$GPGSA,A,3,19,20,05,09,17,,,,,,,,2.15,1.94,0.94*05
$GPGSV,2,1,05,20,59,208,31,19,32,122,42,05,26,211,42,09,25,075,29*75
$GPGSV,2,2,05,17,09,125,26*41
$GPRMC,192033.000,A,4799.0545,N,-8185.1567,W,0.19,143.57,090524,,,A*6B
$GPVTG,143.57,T,,M,0.19,N,0.36,K,A*34
$GPGGA,192034.000,4799.0543,N,-8185.1565,W,1,5,1.94,177.9,M,-35.3,M,,*75
$GPGLL,4799.0543,N,-8185.1565,W,192034.000,A,A*59
$GPGSA,A,3,19,20,05,09,17,,,,,,,,2.15,1.94,0.94*05
$GPGSV,2,1,05,20,59,208,31,19,32,122,42,05,26,211,42,09,25,075,29*75
$GPGSV,2,2,05,17,09,125,26*41
$GPRMC,192034.000,A,4799.0543,N,-8185.1565,W,0.21,156.17,090524,,,A*63
$GPVTG,156.17,T,,M,0.21,N,0.39,K,A*30
$GPGGA,192035.000,4799.0543,N,-8185.1565,W,1,5,1.94,177.9,M,-35.3,M,,*74
$GPGLL,4799.0543,N,-8185.1565,W,192035.000,A,A*58
$GPGSA,A,3,19,20,05,09,17,,,,,,,,2.15,1.94,0.94*05
$GPGSV,2,1,05,20,59,208,31,19,32,122,42,05,26,211,42,09,25,075,29*75
$GPGSV,2,2,05,17,09,125,26*41
$GPRMC,192035.000,A,4799.0543,N,-8185.1565,W,0.41,132.32,090524,,,A*61
$GPVTG,132.32,T,,M,0.41,N,0.76,K,A*38
$GPGGA,192036.000,4799.0542,N,-8185.1563,W,1,5,1.94,177.9,M,-35.3,M,,*70
$GPGLL,4799.0542,N,-8185.1563,W,192036.000,A,A*5C
$GPGSA,A,3,19,20,05,09,17,,,,,,,,2.15,1.94,0.94*05
$GPGSV,2,1,05,20,59,208,32,19,32,122,42,05,26,2036.000,A,4799.0542,N,-8185.1563,W,0.25,184.91,090524,,,A*75
$GPVTG,184.91,T,,M,0.25,N,0.46,K,A*3D
$GPGGA,192037.000,4799.054,N,-8185.1563,W,1,5,1.94,177.9,M,-35.3,M,,*43
$GPGLL,4799.054,N,-8185.1563,W,192037.000,A,A*6F
$GPGSA,A,3,19,20,05,09,17,,,,,,,,2.15,1.94,0.94*05
$GPGSV,2,1,05,20,59,208,32,19,32,122,42,05,26,211,42,09,25,075,29*76
$GPGSV,2,2,05,17,09,125,26*41
$GPRMC,192037.000,A,4799.054,N,-8185.1563,W,0.20,149.10,090524,,,A*5D
$GPVTG,149.10,T,,M,0.20,N,0.38,K,A*39
$GPGGA,192038.000,4799.054,N,-8185.1563,W,1,5,1.94,177.9,M,-35.3,M,,*4C
$GPGLL,4799.054,N,-8185.1563,W,192038.000,A,A*60
$GPGSA,A,3,19,20,05,09,17,,,,,,,,2.15,1.94,0.94*05
$GPGSV,2,1,05,20,59,208,32,19,32,122,42,05,26,211,42,09,25,075,29*76
$GPGSV,2,2,05,17,09,125,27*40
$GPRMC,192038.000,A,4799.054,N,-8185.1563,W,0.19,101.24,090524,,,A*53
$GPVTG,101.24,T,,M,0.19,N,0.35,K,A$GPGGA,192039.000,4799.054,N,-7801.8228,W,192039.000,A,A*42
$GPGSA,A,3,19,20,05,09,17,,,,,,,,2.15,1.94,0.94*05
$GPGSV,2,1,05,20,59,208,32,19,32,122,42,05,26,211,42,09,25,075,29*76
$GPGSV,2,2,05,17,09,125,28*4F
$GPRMC,192039.000,A,4799.054,N,-8185.1562,W,0.18,148.22,090524,,,A*59
$GPVTG,148.22,T,,M,0.18,N,0.34,K,A*3E
$GPGGA,192040.000,4799.0538,N,-8185.1562,W,1,5,1.94,177.9,M,-35.3,M,,*7D
$GPGLL,4799.0538,N,-8185.1562,W,192040.000,A,A*51
$GPGSA,A,3,19,20,05,09,17,,,,,,,,2.15,1.94,0.94*05
$GPGSV,2,1,05,20,59,208,32,19,32,122,42,05,26,211,42,09,25,075,29*76
$GPGSV,2,2,05,17,09,125,28*4F
$GPRMC,192040.000,A,4799.0538,N,-8185.1562,W,0.21,216.98,090524,,,A*6B
$GPVTG,216.98,T,,M,0.21,N,0.39,K,A*30
$GPGGA,192041.000,4799.0538,N,-8185.1562,W,1,5,1.93,177.9,M,-35.3,M,,*7B
$GPGLL,4799.0538,N,-8185.1562,W,192041.000,A,A*50
$GPGSA,A,3,19,20,05,09,17,,,,,,,,2.15,1.93,0.94*02
$GPGSV,2,1,05,20,59,208,32,19,32,122,41,05,26,211,42,09,25,075,28*74
$GPGSV,2,2,05,17,09,125,28*4F
$GPRMC,192041.000,A,4799.0538,N,-8185.1562,W,0.22,263.29,090524,,,A*61
$GPVTG,263.29,T,,M,0.22,N,0.40,K,A*35
$GPGGA,192042.000,4799.0538,N,-8185.1563,W,1,5,1.93,177.9,M,-35.3,M,,*79
$GPGLL,4799.0538,N,-8185.1563,W,192042.000,A,A*52
$GPGSA,A,3,19,20,05,09,17,,,,,,,,2.15,1.93,0.94*02
$GPGSV,2,1,05,20,59,208,32,19,32,122,41,05,26,211,42,09,25,075,28*74
$GPGSV,2,2,05,17,09,125,28*4F
$GPRMC,192042.000,A,4799.0538,N,-8185.1563,W,0.05,309.23,090524,,,A*61
$GPVTG,309.23,T,,M,0.05,N,0.09,K,A*3A
$GPGGA,192043.000,4799.0538,N,-8185.1563,W,1,5,1.93,177.8,M,-35.3,M,,*79
$GPGLL,4799.0538,N,-8185.1563,W,192043.000,A,A*53
$GPGSA,A,3,19,20,05,09,17,,,,,,,,2.15,1.93,0.94*02
$GPGSV,2,1,05,20,59,208,32,19,32,122,41,05,26,211,42,09,25,075,28*74
$GPGSV,2,2,05,17,09,125,28*4F
$GPRMC,192043.000,A,4799.0538,N,-8185.1563,W,0.15,108.99,090524,,,A*63
$GPVTG,108.99,T,,M,0.15,N,0.28,K,A*3A
$GPGGA,192044.000,4799.0538,N,-8185.1562,W,1,5,1.93,177.8,M,-35.3,M,,*7F
$GPGLL,4799.0538,N,-8185.1562,W,192044.000,A,A*55
$GPGSA,A,3,19,20,05,09,17,,,,,,,,2.15,1.93,0.94*02
$GPGSV,2,1,05,20,59,208,32,19,32,122,41,05,26,211,42,09,25,075,28*74
$GPGSV,2,2,05,17,09,125,28*4F
$GPRMC,192044.000,A,4799.0538,N,-8185.1562,W,0.18,212.66,090524,,,A*60
$GPVTG,212.66,T,,M,0.18,N,0.33,K,A*35
$GPGGA,192045.000,4799.0537,N,-8185.1563,W,1,5,1.93,177.8,M,-35.3,M,,*70
$GPGLL,4799.0537,N,-8185.1563,W,192045.000,A,A*5A
$GPGSA,A,3,19,20,05,09,17,,,,,,,,2.15,1.93,0.94*02
$GPGSV,2,1,05,20,59,208,32,19,32,122,41,05,26,211,42,09,25,075,28*74
$GPGSV,2,2,05,17,09,125,28*4F
$GPRMC,192045.000,A,4799.0537,N,-8185.1563,W,0.22,197.78,090524,,,A*67
$GPVTG,197.78,T,,M,0.22,N,0.42,K,A*3B
$GPGGA,192046.000,4799.0537,N,-8185.1563,W,1,5,1.93,177.8,M,-35.3,M,,*73
$GPGLL,4799.0537,N,-8185.1563,W,192046.000,A,A*59
$GPGSA,A,3,19,20,05,09,17,,,,,,,,2.15,1.93,0.94*02
$GPGSV,2,1,05,20,59,208,32,19,32,122,41,05,26,211,42,09,25,075,28*74
$GPGSV,2,2,05,17,09,125,28*4F
$GPRMC,192046.000,A,4799.0537,N,-8185.1563,W,0.12,171.32,090524,,,A*61
$GPVTG,171.32,T,,M,0.12,N,0.23,K,A*39
$GPGGA,192047.000,4799.0535,N,-8185.1563,W,1,5,1.93,177.8,M,-35.3,M,,*70
$GPGLL,4799.0535,N,-8185.1563,W,192047.000,A,A*5A
$GPGSA,A,3,19,20,05,09,17,,,,,,,,2.15,1.93,0.94*02
$GPGSV,2,1,05,20,59,208,32,19,32,122,41,05,26,211,42,09,25,075,28*74
$GPGSV,2,2,05,17,09,125,28*4F
$GPRMC,192047.000,A,4799.0535,N,-8185.1563,W,0.31,120.52,090524,,,A*61
$GPVTG,120.52,T,,M,0.31,N,0.57,K,A*39
$GPGGA,192048.000,4799.0535,N,-8185.1562,W,1,5,1.93,177.8,M,-35.3,M,,*7E
$GPGLL,4799.0535,N,-8185.1562,W,192048.000,A,A*54
$GPGSA,A,3,19,20,05,09,17,,,,,,,,2.15,1.93,0.94*02
$GPGSV,2,1,05,20,59,208,32,19,32,122,41,05,26,211,42,09,25,075,28*74
$GPGSV,2,2,05,17,09,125,28*4F
$GPRMC,192048.000,A,4799.0535,N,-8185.1562,W,0.23,149.56,090524,,,A*67
$GPVTG,149.56,T,,M,0.23,N,0.42,K,A*35
$GPGGA,192049.000,4799.0533,N,-8185.1562,W,1,5,1.93,177.8,M,-35.3,M,,*79
$GPGLL,4799.0533,N,-8185.1562,W,192049.000,A,A*53
$GPGSA,A,3,19,20,05,09,17,,,,,,,,2.15,1.93,0.94*02
$GPGSV,2,1,05,20,59,208,32,19,32,122,41,05,26,211,42,09,25,074,28*75
$GPGSV,2,2,05,17,09,125,28*4F
$GPRMC,192049.000,A,4799.0533,N,-8185.1562,W,0.32,137.74,090524,,,A*69
$GPVTG,137.74,T,,M,0.32,N,0.58,K,A*37
$GPGGA,192050.000,4799.0532,N,-8185.156,W,1,5,1.93,177.8,M,-35.3,M,,*42
$GPGLL,4799.0532,N,-8185.156,W,192050.000,A,A*68
$GPGSA,A,3,19,20,05,09,17,,,,,,,,2.15,1.93,0.94*02
$GPGSV,2,1,05,20,59,208,32,19,32,122,41,05,26,211,42,09,25,074,28*75
$GPGSV,2,2,05,17,09,125,28*4F
$GPRMC,192050.000,A,4799.0532,N,-8185.156,W,0.42,137.36,090524,,,A*53
$GPVTG,137.36,T,,M,0.42,N,0.78,K,A*34
$GPGGA,192051.000,4799.0532,N,-8185.1558,W,1,5,1.93,177.8,M,-35.3,M,,*78
$GPGLL,4799.0532,N,-8185.1558,W,192051.000,A,A*52
$GPGSA,A,3,19,20,05,09,17,,,,,,,,2.15,1.93,0.94*02
$GPGSV,2,1,05,20,59,208,31,19,32,122,40,05,26,211,40,09,25,074,27*7A
$GPGSV,2,2,05,17,09,125,27*40
$GPRMC,192051.000,A,4799.0532,N,-8185.1558,W,0.33,141.36,090524,,,A*6E
$GPVTG,141.36,T,,M,0.33,N,0.61,K,A*3B
$GPGGA,192052.000,4799.053,N,-8185.1557,W,1,5,1.93,177.8,M,-35.3,M,,*46
$GPGLL,4799.053,N,-8185.1557,W,192052.000,A,A*6C
$GPGSA,A,3,19,20,05,09,17,,,,,,,,2.15,1.93,0.94*02
$GPGSV,2,1,05,20,59,208,31,19,32,122,40,05,26,211,40,09,25,074,27*7A
$GPGSV,2,2,05,17,09,125,28*4F
$GPRMC,192052.000,A,4799.053,N,-8185.1557,W,0.36,143.77,090524,,,A*52
$GPVTG,143.77,T,,M,0.36,N,0.67,K,A*3F
$GPGGA,192053.000,4799.0528,N,-8185.1555,W,1,5,1.93,177.8,M,-35.3,M,,*7C
$GPGLL,4799.0528,N,-8185.1555,W,192053.000,A,A*56
$GPGSA,A,3,19,20,05,09,17,,,,,,,,2.15,1.93,0.94*02
$GPGSV,2,1,05,20,59,208,31,19,32,122,41,05,26,211,41,09,25,074,28*75
$GPGSV,2,2,05,17,09,125,29*4E
$GPRMC,192053.000,A,4799.0528,N,-8185.1555,W,0.30,139.29,090524,,,A*68
$GPVTG,139.29,T,,M,0.30,N,0.56,K,A*3D
$GPGGA,192054.000,4799.0527,N,-8185.1553,W,1,5,1.93,177.8,M,-35.3,M,,*72
$GPGLL,4799.0527,N,-8185.1553,W,192054.000,A,A*58
$GPGSA,A,3,19,20,05,09,17,,,,,,,,2.15,1.93,0.94*02
$GPGSV,2,1,05,20,59,208,31,19,32,122,41,05,26,211,41,09,25,074,28*75
$GPGSV,2,2,05,17,09,125,30*46
$GPRMC,192054.000,A,4799.0527,N,-8185.1553,W,0.19,130.75,090524,,,A*6D
$GPVTG,130.75,T,,M,0.19,N,0.36,K,A*30
$GPGGA,192055.000,4799.0527,N,-8185.1553,W,1,5,1.93,177.8,M,-35.3,M,,*73
$GPGLL,4799.0527,N,-8185.1553,W,192055.000,A,A*59
$GPGSA,A,3,19,20,05,09,17,,,,,,,,2.15,1.93,0.94*02
$GPGSV,2,1,05,20,59,208,31,19,32,122,41,05,26,211,41,09,25,074,29*74
$GPGSV,2,2,05,17,09,125,30*46
$GPRMC,192055.000,A,4799.0527,N,-8185.1553,W,0.11,83.19,090524,,,A*57
$GPVTG,83.19,T,,M,0.11,N,0.20,K,A*0C
$GPGGA,192056.000,4799.0527,N,-8185.1552,W,1,5,1.93,177.8,M,-35.3,M,,*71
$GPGLL,4799.0527,N,-8185.1552,W,192056.000,A,A*5B
$GPGSA,A,3,19,20,05,09,17,,,,,,,,2.15,1.93,0.94*02
$GPGSV,2,1,05,20,59,208,31,19,32,122,41,05,26,211,41,09,25,074,29*74
$GPGSV,2,2,05,17,09,125,30*46
$GPRMC,192056.000,A,4799.0527,N,-8185.1552,W,0.06,76.97,090524,,,A*5F
$GPVTG,76.97,T,,M,0.06,N,0.11,K,A*04
$GPGGA,192057.000,4799.0527,N,-8185.1552,W,1,5,1.93,177.8,M,-35.3,M,,*70
$GPGLL,4799.0527,N,-8185.1552,W,192057.000,A,A*5A
$GPGSA,A,3,19,20,05,09,17,,,,,,,,2.14,1.93,0.94*03
$GPGSV,2,1,05,20,59,208,32,19,32,122,41,05,26,211,41,09,25,074,29*77
$GPGSV,2,2,05,17,09,125,31*47
$GPRMC,192057.000,A,4799.0527,N,-8185.1552,W,0.36,111.91,090524,,,A*6B
$GPVTG,111.91,T,,M,0.36,N,0.67,K,A*30
$GPGGA,192058.000,4799.0527,N,-8185.155,W,1,5,1.93,177.8,M,-35.3,M,,*4D
$GPGLL,4799.0527,N,-8185.155,W,192058.000,A,A*67
$GPGSA,A,3,19,20,05,09,17,,,,,,,,2.14,1.93,0.94*03
$GPGSV,2,1,05,20,59,208,32,19,32,122,41,05,26,211,41,09,25,074,29*77
$GPGSV,2,2,05,17,09,125,31*47
$GPRMC,192058.000,A,4799.0527,N,-8185.155,W,0.39,142.86,090524,,,A*59
$GPVTG,142.86,T,,M,0.39,N,0.73,K,A*3A
$GPGGA,192059.000,4799.0525,N,-8185.1548,W,1,5,1.93,177.8,M,-35.3,M,,*77
$GPGLL,4799.0525,N,-8185.1548,W,192059.000,A,A*5D
$GPGSA,A,3,19,20,05,09,17,,,,,,,,2.15,1.93,0.94*02
$GPGSV,2,1,05,20,59,208,32,19,32,122,41,05,26,211,41,09,25,074,29*77
$GPGSV,2,2,05,17,09,125,31*47
$GPRMC,192059.000,A,4799.0525,N,-8185.1548,W,0.50,146.56,090524,,,A*65
$GPVTG,146.56,T,,M,0.50,N,0.92,K,A*33
$GPGGA,192100.000,4799.0523,N,-8185.1547,W,1,5,1.93,177.8,M,-35.3,M,,*73
$GPGLL,4799.0523,N,-8185.1547,W,192100.000,A,A*59
$GPGSA,A,3,19,20,05,09,17,,,,,,,,2.14,1.93,0.94*03
$GPGSV,2,1,05,20,59,209,32,19,32,122,41,05,26,211,41,09,25,074,29*76
$GPGSV,2,2,05,17,09,125,31*47
$GPRMC,192100.000,A,4799.0523,N,-8185.1547,W,0.36,143.00,090524,,,A*67
$GPVTG,143.00,T,,M,0.36,N,0.67,K,A*3F
$GPGGA,192101.000,4799.0522,N,-8185.1545,W,1,5,1.93,177.8,M,-35.3,M,,*71
$GPGLL,4799.0522,N,-8185.1545,W,192101.000,A,A*5B
$GPGSA,A,3,19,20,05,09,17,,,,,,,,2.14,1.93,0.94*03
$GPGSV,2,1,05,20,59,209,32,19,32,122,41,05,26,211,41,09,25,074,29*76
$GPGSV,2,2,05,17,09,125,31*47
$GPRMC,192101.000,A,4799.0522,N,-8185.1545,W,0.35,164.94,090524,,,A*6E
$GPVTG,164.94,T,,M,0.35,N,0.65,K,A*36
$GPGGA,192102.000,4799.052,N,-8185.1545,W,1,5,1.93,177.8,M,-35.3,M,,*40
$GPGLL,4799.052,N,-8185.1545,W,192102.000,A,A*6A
$GPGSA,A,3,19,20,05,09,17,,,,,,,,2.14,1.93,0.94*03
$GPGSV,2,1,05,20,59,209,32,19,32,122,41,05,26,211,41,09,25,074,29*76
$GPGSV,2,2,05,17,09,125,31*47
$GPRMC,192102.000,A,4799.052,N,-8185.1545,W,0.48,160.94,090524,,,A*51
$GPVTG,160.94,T,,M,0.48,N,0.89,K,A*3A
$GPGGA,192103.000,4799.0517,N,-8185.1543,W,1,5,1.93,177.8,M,-35.3,M,,*73
$GPGLL,4799.0517,N,-8185.1543,W,192103.000,A,A*59
$GPGSA,A,3,19,20,05,09,17,,,,,,,,2.14,1.93,0.94*03
$GPGSV,2,1,05,20,59,209,32,19,32,122,41,05,26,211,41,09,25,074,28*77
$GPGSV,2,2,05,17,09,125,31*47
$GPRMC,192103.000,A,4799.0517,N,-8185.1543,W,0.34,180.44,090524,,,A*6A
$GPVTG,180.44,T,,M,0.34,N,0.62,K,A*37
$GPGGA,192104.000,4799.0517,N,-8185.1543,W,1,5,1.93,177.8,M,-35.3,M,,*74
$GPGLL,4799.0517,N,-8185.1543,W,192104.000,A,A*5E
$GPGSA,A,3,19,20,05,09,17,,,,,,,,2.14,1.93,0.94*03
$GPGSV,2,1,05,20,59,209,32,19,32,122,41,05,26,211,41,09,25,074,28*77
$GPGSV,2,2,05,17,09,125,31*47
$GPRMC,192104.000,A,4799.0517,N,-8185.1543,W,0.30,144.42,090524,,,A*67
$GPVTG,144.42,T,,M,0.30,N,0.56,K,A*3A
$GPGGA,192105.000,4799.0515,N,-8185.1543,W,1,5,1.92,177.8,M,-35.3,M,,*76
$GPGLL,4799.0515,N,-8185.1543,W,192105.000,A,A*5D
$GPGSA,A,3,19,20,05,09,17,,,,,,,,2.14,1.92,0.94*02
$GPGSV,2,1,05,20,59,209,32,19,32,122,41,05,26,211,41,09,25,074,28*77
$GPGSV,2,2,05,17,09,125,31*47
$GPRMC,192105.000,A,4799.0515,N,-8185.1543,W,0.30,160.11,090524,,,A*64
$GPVTG,160.11,T,,M,0.30,N,0.56,K,A*3A
$GPGGA,192106.000,4799.0513,N,-8185.1542,W,1,5,1.92,177.8,M,-35.3,M,,*72
$GPGLL,4799.0513,N,-8185.1542,W,192106.000,A,A*59
$GPGSA,A,3,19,20,05,09,17,,,,,,,,2.14,1.92,0.94*02
$GPGSV,2,1,05,20,59,209,32,19,32,122,41,05,26,211,41,09,25,074,28*77
$GPGSV,2,2,05,17,09,125,31*47
$GPRMC,192106.000,A,4799.0513,N,-8185.1542,W,0.12,162.57,090524,,,A*60
$GPVTG,162.57,T,,M,0.12,N,0.22,K,A*39
$GPGGA,192107.000,4799.0513,N,-8185.1542,W,1,5,1.92,177.8,M,-35.3,M,,*73
$GPGLL,4799.0513,N,-8185.1542,W,192107.000,A,A*58
$GPGSA,A,3,19,20,05,09,17,,,,,,,,2.14,1.92,0.94*02
$GPGSV,2,1,05,20,59,209,32,19,32,122,41,05,26,211,41,09,25,074,28*77
$GPGSV,2,2,05,17,09,125,31*47
$GPRMC,192107.000,A,4799.0513,N,-8185.1542,W,0.06,193.02,090524,,,A*6A
$GPVTG,193.02,T,,M,0.06,N,0.11,K,A*32
$GPGGA,192107.000,4799.0508,N,-8185.1538,W,1,5,1.92,177.6,M,-35.3,M,,*7A
$GPGLL,4799.0508,N,-8185.1538,W,192107.000,A,A*5F
$GPGSA,A,3,19,20,05,09,17,,,,,,,,2.14,1.92,0.94*02
$GPGSV,2,1,05,20,59,209,32,19,32,122,41,05,26,211,41,09,25,074,28*77
$GPGSV,2,2,05,17,09,125,31*47
$GPRMC,192107.000,A,4799.0508,N,-8185.1538,W,0.05,31.13,090524,,,A*57
$GPVTG,31.13,T,,M,0.05,N,0.09,K,A*01
$GPGGA,192108.000,4799.051,N,-8185.1538,W,1,5,1.92,177.5,M,-35.3,M,,*4F
$GPGLL,4799.051,N,-8185.1538,W,192108.000,A,A*69
$GPGSA,A,3,19,20,05,09,17,,,,,,,,2.14,1.92,0.94*02
$GPGSV,2,1,05,20,59,209,32,19,32,122,41,05,26,211,41,09,25,074,28*77
$GPGSV,2,2,05,17,09,125,31*47
$GPRMC,192108.000,A,4799.051,N,-8185.1538,W,0.26,311.33,090524,,,A*53
$GPVTG,311.33,T,,M,0.26,N,0.49,K,A*37
$GPGGA,192109.000,4799.0507,N,-8185.154,W,1,5,1.92,177.3,M,-35.3,M,,*41
$GPGLL,4799.0507,N,-8185.154,W,192109.000,A,A*61
$GPGSA,A,3,19,20,05,09,17,,,,,,,,2.14,1.92,0.94*02
$GPGSV,2,1,05,20,59,209,33,19,32,122,41,05,26,211,41,09,25,074,28*76
$GPGSV,2,2,05,17,09,125,31*47
$GPRMC,192109.000,A,4799.0507,N,-8185.154,W,0.25,334.18,090524,,,A*56
$GPVTG,334.18,T,,M,0.25,N,0.46,K,A*35
$GPGGA,192110.000,4799.0505,N,-8185.1543,W,1,5,1.92,177.2,M,-35.3,M,,*79
$GPGLL,4799.0505,N,-8185.1543,W,192110.000,A,A*58
$GPGSA,A,3,19,20,05,09,17,,,,,,,,2.14,1.92,0.94*02
$GPGSV,2,1,05,20,59,209,33,19,32,122,41,05,26,211,42,09,25,074,28*75
$GPGSV,2,2,05,17,09,125,31*47
$GPRMC,192110.000,A,4799.0505,N,-8185.1543,W,0.31,343.85,090524,,,A*6E
$GPVTG,343.85,T,,M,0.31,N,0.58,K,A*3B
$GPGGA,192111.000,4799.0507,N,-8185.1543,W,1,5,1.92,176.8,M,-35.3,M,,*71
$GPGLL,4799.0507,N,-8185.1543,W,192111.000,A,A*5B
$GPGSA,A,3,19,20,05,09,17,,,,,,,,2.14,1.92,0.94*02
$GPGSV,2,1,05,20,59,209,33,19,32,122,42,05,26,211,42,09,25,074,29*77
$GPGSV,2,2,05,17,09,125,31*47
$GPRMC,192111.000,A,4799.0507,N,-8185.1543,W,0.28,20.65,090524,,,A*5D
$GPVTG,20.65,T,,M,0.28,N,0.52,K,